id,post_id,open_date,street,address,place_type,shop_centre,dns,lat,lon,response,district,post2,is_center,price,parking_count,parking_min_distance,finance_count,shop_count,distance_100,distance_500,cafe_count,culture_count,job_gov_count,metro_count,metro_min_distance,transport_count,transport_min_distance,working_days,work_hours,weekday_availability,office_hours,is_moscow
18017,,2017.0, пл. Преображенская,"пл. Преображенская, дом 8",other,False,False,51.27952020000001,37.5020102,"Москва, Преображенская улица, Салтыково, Губкин, Губкинский городской округ, Белгородская область, ЦФО, 309183, РФ",Салтыково, 309183,False,227892.0,51,22.43775578861629,7,16,7.648714285714287,139.20385714285715,10,2,9,1,210.60251534541345,19,90.5048831987793,6.0,11.0,1.0,,True
5546,,2015.0, пл. Преображенская,"пл. Преображенская, д. 8",ТП,False,False,51.27952020000001,37.5020102,"Москва, Преображенская улица, Салтыково, Губкин, Губкинский городской округ, Белгородская область, ЦФО, 309183, РФ",Салтыково, 309183,False,227892.0,51,22.43775578861629,7,16,7.648714285714287,139.20385714285715,10,2,9,1,210.60251534541345,19,90.5048831987793,6.0,11.0,1.0,,True
6211,,2015.0, пл. Преображенская,"пл. Преображенская, д. 8  ТП №2",ТП,False,False,51.27952020000001,37.5020102,"Москва, Преображенская улица, Салтыково, Губкин, Губкинский городской округ, Белгородская область, ЦФО, 309183, РФ",Салтыково, 309183,False,227892.0,39,39.888740342963466,8,15,11.275285714285712,111.10542857142859,12,2,15,1,434.93123773179605,23,25.471713680411955,6.0,11.0,1.0,,True
18067,,2017.0, пл. Преображенская,"пл. Преображенская, дом 8",other,False,False,51.27952020000001,37.5020102,"Москва, Преображенская улица, Салтыково, Губкин, Губкинский городской округ, Белгородская область, ЦФО, 309183, РФ",Салтыково, 309183,False,227892.0,51,22.43775578861629,7,16,7.648714285714287,139.20385714285715,10,2,9,1,210.60251534541345,19,90.5048831987793,6.0,11.0,1.0,,True
12748,141551.0,2017.0, рп Андреевка,"рп Андреевка, дом 3 Б",ОПС Б1,False,False,52.191502,30.293079,"Андреевка, Ровенскослободский сельский Совет, Речицкий район, Гомельская область, Беларусь",Речицкий, Гомельская область,False,,21,74.3951626900394,3,15,2.9885714285714284,23.84842857142857,5,1,2,0,,7,164.25540967630408,6.0,11.0,1.0,,False
14079,143362.0,2017.0, ул. Кирова,"ул. Кирова, дом 19",ОПС Б1_2,False,False,55.5375785,37.057207399999996,"улица Кирова, Апрелевка, Наро-Фоминский городской округ, Московская область, ЦФО, 143362, РФ",Наро-Фоминский городской округ, 143362,False,,3,32.434796734478695,0,2,0.8885714285714286,41.31785714285714,1,0,2,0,,9,285.07462686567163,5.0,9.0,0.0,,False
16741,143363.0,2017.0, ул. Парковая,"ул. Парковая, дом 4/1",ОПС Б1,False,False,55.56047170000001,37.063663899999995,"Парковая улица, Апрелевка, Наро-Фоминский городской округ, Московская область, ЦФО, 143363, РФ",Наро-Фоминский городской округ, 143363,False,,2,324.41749982120695,1,5,2.132857142857143,19.461,3,2,2,0,,1,131.3517636339809,5.0,9.0,1.0,,False
1408,,2013.0, прт Ленина,"прт Ленина, 8",КЦ,False,False,55.79719,37.947278600000004,"проспект Ленина, Балашиха-1, Балашиха, городской округ Балашиха, Московская область, ЦФО, 143907, РФ",Балашиха, 143907,False,82897.0,41,77.21266411743206,5,24,3.7152857142857134,70.91328571428572,17,4,16,0,,6,82.43482341452173,7.0,12.0,2.0,"пн.—пт.: 09:00—21:00 сб., вс.: 10:00—17:00",False
11687,143914.0,2017.0, мкр. Дзержинского,"мкр. Дзержинского, дом 38",ОПС Б1_2,False,False,55.7784708,37.8956007,"микрорайон Дзержинского, Балашиха, городской округ Балашиха, Московская область, ЦФО, РФ",городской округ Балашиха, ЦФО,False,82897.0,15,72.85202902606437,0,17,1.558142857142857,32.025,5,1,2,0,,8,97.01492537313429,7.0,11.0,2.0,"ср.—вс.: 09:00—18:00, пн.: 11:00—20:00 вт.—пт.: 09:00—20:00 сб.: 09:00—18:00",False
19394,143980.0,2018.0, мкр. Железнодорожный,"мкр. Железнодорожный, ул. Пролетарская, дом 2",ОПС Б1_2,False,False,55.74559059999999,37.9831159,"Железнодорожный проезд, Микрорайон Керамик, Балашиха, городской округ Балашиха, Московская область, ЦФО, 143980, РФ",Балашиха, 143980,False,82897.0,26,96.13840546380844,3,24,4.043285714285714,74.704,11,4,11,0,,14,201.5436640497564,6.0,11.0,1.0,,False
18267,143981.0,2017.0, мкр. Кучино,"мкр. Кучино, ул. Южная, дом 3",ОПС Б1,False,False,55.75332020000001,37.958535299999994,"Микрорайон Кучино, Балашиха, городской округ Балашиха, Московская область, ЦФО, РФ",городской округ Балашиха, ЦФО,False,82897.0,12,151.49437540242158,1,17,0.7242857142857143,54.174428571428564,5,3,5,0,,3,172.38159837991225,5.0,9.0,1.0,['вт.—пт.: 10:00—19:00 сб.: 10:00—18:00'],False
14934,143989.0,2017.0, ул. Главная,"ул. Главная, дом 22 Б",ОПС Б1,False,False,55.7503486,37.9933505,"Главная улица, 2 квартал, Железнодорожный, Балашиха, городской округ Балашиха, Московская область, ЦФО, 143989, РФ",Железнодорожный, 143989,False,82897.0,38,62.44177506196701,1,26,4.640285714285715,40.88471428571429,6,1,7,0,,9,35.27254417342231,6.0,9.0,1.0,"пн.—пт.: 10:00—19:00, вт.—сб.: 10:00—19:00",False
16444,143903.0,, ул. Октябрьская,"ул. Октябрьская, дом 9",ОПС Б1,False,False,55.80600129999999,37.9806605,"Октябрьская улица, Балашиха-3, Балашиха, городской округ Балашиха, Московская область, ЦФО, 143903, РФ",Балашиха, 143903,False,82897.0,27,109.17224348730215,3,20,1.558,50.36185714285714,13,2,10,0,,11,274.35600692201854,6.0,11.0,1.0,,False
14065,143909.0,2017.0, ул. Солнечная,"ул. Солнечная, дом 2",ОПС Б1,False,False,55.745605299999994,37.9127463,"Солнечная улица, Микрорайон Салтыковка, Балашиха, городской округ Балашиха, Московская область, ЦФО, 143930, РФ",Балашиха, 143930,False,82897.0,22,24.67205261912916,1,12,1.1778571428571432,26.887857142857147,1,4,0,0,,9,250.65074584205502,5.0,9.0,0.0,['пн.—пт.: 10:00—19:00'],False
16370,143900.0,2017.0, ул. Фадеева,"ул. Фадеева, дом 4 А",ОПС Б1_2,False,False,55.794959899999995,37.976654499999995,"улица Фадеева, Южный, Балашиха, городской округ Балашиха, Московская область, ЦФО, 143900, РФ",Балашиха, 143900,False,82897.0,27,181.99777476675087,4,28,0.9752857142857144,36.933,9,1,2,0,,9,276.2736559857954,5.0,9.0,0.0,['пн.—пт.: 10:00—19:00'],False
14977,142050.0,, ул. Кирова,"ул. Кирова, дом 3 А",ОПС Б1,False,False,55.331387600000006,37.8561246,"Белые Столбы, Домодедово, городской округ Домодедово, Московская область, ЦФО, 142050, РФ",городской округ Домодедово, 142050,False,,0,,0,0,0.057999999999999996,0.11671428571428573,0,0,0,0,,6,153.28874121155545,6.0,11.0,1.0,,False
12247,141342.0,2017.0, ул. Московская,"ул. Московская, дом 21",ОПС Б1,False,False,55.5304436,39.0900466,"Богородское, городской округ Ликино-Дулёво, Московская область, ЦФО, РФ",Московская область, ЦФО,False,,19,56.29260347954062,0,7,0.11314285714285716,9.553857142857145,1,2,2,0,,4,114.1620316959778,6.0,11.0,1.0,,False
26910,,2019.0, ул. Ленина,"ул. Ленина, дом 110",other,False,False,54.9024172,37.3603624,"улица Ленина, Серпухов, городской округ Серпухов, Московская область, ЦФО, 142253, РФ",городской округ Серпухов, 142253,False,,5,459.2293805601986,0,6,0.6504285714285715,21.313000000000002,0,3,1,0,,5,198.44152198464656,6.0,11.0,1.0,,False
11405,140171.0,2017.0, ул. Марьинский,"ул. Марьинский, дом 3",ОПС Б1,False,False,55.41810039999999,38.276053499999996,"Марьинский переулок, Бронницы, городской округ Бронницы, Московская область, ЦФО, 140170, РФ",городской округ Бронницы, 140170,False,,11,44.055140725807284,0,3,0.3674285714285713,12.36742857142857,1,0,0,0,,3,70.184970265979,6.0,11.0,1.0,,False
13261,140150.0,2017.0, ул. Параллельная,"ул. Параллельная, дом 12",ОПС Б1,False,False,55.625451299999995,38.065946399999994,"Отделение связи №140150, 12, Параллельная улица, городское поселение Быково, Раменский район, Московская область, ЦФО, 140150, РФ",Параллельная улица, 140150,False,,3,248.37744794885842,0,11,0.1482857142857143,18.63,8,1,4,0,,9,241.9994034998328,5.0,9.0,0.0,['пн.—пт.: 10:00—19:00'],False
10622,108818.0,2017.0, дер. Ватутинки,"дер. Ватутинки, дом 34 А",ОПС Б1,False,False,55.503039799999996,37.3313045,"Ватутинки, Новомосковский административный округ, Москва, ЦФО, 142793, РФ",Москва, 142793,False,,3,482.2564518637606,1,2,0.1422857142857143,40.84485714285713,1,0,1,0,,7,88.21451102537863,6.0,11.0,1.0,,False
15105,141930.0,2017.0, ул. Победы,"ул. Победы, дом 1",ОПС Б1,False,False,56.529605200000006,37.586093299999995,"улица Победы, Вербилки, Талдомский городской округ, Московская область, ЦФО, 141930, РФ",Талдомский городской округ, 141930,False,,18,46.70592605468313,1,14,2.126714285714286,9.362,1,3,4,0,,6,26.28942530419184,5.0,9.0,0.0,['пн.—пт.: 09:00—18:00 перерыв: 13:00—14:00'],False
15754,143330.0,2017.0, пл. Советская,"пл. Советская, дом 13/1",ОПС Б1,False,False,55.3437869,36.185095399999994,"Советская площадь, Верея, Наро-Фоминский городской округ, Московская область, ЦФО, 143330, РФ",Наро-Фоминский городской округ, 143330,False,,5,196.2402794308731,2,10,0.31485714285714284,11.860142857142858,3,6,4,0,,5,286.4631729847627,5.0,9.0,0.0,['пн.—пт.: 09:00—18:00 перерыв: 13:00—14:00'],False
11410,142701.0,2017.0, прт Ленинского Комсомола,"прт Ленинского Комсомола, дом 3",ОПС Б1,False,False,55.54942270000001,37.716575799999994,"проспект Ленинского Комсомола, 6-й микрорайон, городское поселение Видное, Ленинский район, Московская область, ЦФО, 142701, РФ",городское поселение Видное, 142701,False,94885.0,69,30.036734026116577,5,39,5.101714285714285,70.91628571428572,4,1,21,0,,10,37.17886181218254,5.0,9.0,0.0,['пн.—пт.: 10:00—19:00'],False
7772,142700.0,2016.0, ул. Школьная,"ул. Школьная, дом 21",ОПС Б1_2,False,False,55.55704220000001,37.70994,"Отделение связи №142700, 21, Школьная улица, 5-й микрорайон, городское поселение Видное, Ленинский район, Московская область, ЦФО, 142703, РФ",Школьная улица, 142703,False,94885.0,37,24.71715695773015,2,13,3.545428571428572,46.31585714285714,3,4,18,0,,8,30.460196465609776,6.0,11.0,1.0,"пн.: 11:00—20:00 вт.—пт.: 09:00—20:00 сб.: 09:00—18:00, пн.—пт.: 09:00—18:00",False
2948,,2014.0, ул. Панфилова,"ул. Панфилова, д. 22",other,True,False,56.0319358,35.958705,"улица Панфилова, городское поселение Волоколамск, Волоколамский район, Московская область, ЦФО, 143600, РФ",Волоколамский, 143600,False,47674.0,25,49.619851372774,1,11,0.5554285714285714,16.255857142857142,10,1,7,0,,2,101.05811327575329,6.0,11.0,1.0,,False
1427,,2015.0, ул. Менделеева,"ул. Менделеева, 1А",КЦ,False,False,55.322185,38.6664479,"улица Менделеева, городское поселение Воскресенск, Воскресенский район, Московская область, ЦФО, 140205, РФ",Воскресенский, 140205,False,48626.0,6,201.7259565610154,2,12,2.997,26.514714285714287,5,1,9,0,,4,71.47446255173577,7.0,12.0,2.0,"['пн.—пт.: 09:00–21:00 сб., вс.: 10:00–17:00']",False
10142,140209.0,2016.0, ул. Кагана,"ул. Кагана, дом 25",ОПС Б1_2,False,False,55.31427539999999,38.6561875,"улица Кагана, городское поселение Воскресенск, Воскресенский район, Московская область, ЦФО, 140209, РФ",Воскресенский, 140209,False,48626.0,6,111.036149560604,2,4,1.8597142857142857,16.543142857142858,4,0,0,0,,7,72.53792764312159,6.0,11.0,1.0,['пн.: 11:00—20:00 вт.—пт.: 09:00—20:00 сб.: 09:00—18:00'],False
15664,140203.0,2017.0, ул. Мичурина,"ул. Мичурина, дом 3 А",ОПС Б1,False,False,55.2449071,38.7669814,"улица Мичурина, Воскресенск, Коломенский городской округ, Московская область, ЦФО, 140203, РФ",Коломенский городской округ, 140203,False,48626.0,9,63.88338674338117,2,12,0.20742857142857146,12.72557142857143,0,2,2,0,,4,131.2436019295772,5.0,9.0,0.0,['пн.—пт.: 10:00–19:00'],False
8068,140200.0,2016.0, ул. Октябрьская,"ул. Октябрьская, дом 11",ОПС Б1,False,False,55.322748499999996,38.67973920000001,"Отделение связи №140200, 11, Октябрьская улица, городское поселение Воскресенск, Воскресенский район, Московская область, ЦФО, 140200, РФ",Октябрьская улица, 140200,False,48626.0,15,118.11101400134129,5,19,1.5385714285714285,45.89028571428572,4,2,9,0,,9,65.03250725084878,5.0,9.0,0.0,['пн.—пт.: 10:00–19:00'],False
10919,140206.0,2017.0, ул. Рабочая,"ул. Рабочая, дом 101 А",ОПС Б1,False,False,55.2859211,38.7416718,"Рабочая улица, микрорайон «Коммуна», Воскресенск, Воскресенский район, Московская область, ЦФО, 140206, РФ",Воскресенск, 140206,False,48626.0,5,94.88183080957485,1,8,0.7005714285714286,4.265714285714286,1,0,2,0,,1,545.4810405548592,5.0,9.0,0.0,['пн.—пт.: 10:00–19:00'],False
6002,,2015.0, пл. Ленина,"пл. Ленина, д.5 Технопарк",ТП,False,False,55.90636800000001,36.8592864,"улица Ленина, Истра, городской округ Истра, Московская область, ЦФО, 143500, РФ",городской округ Истра, 143500,False,48626.0,0,,0,0,0.8994285714285715,65.96300000000001,0,0,0,0,,8,304.150028636862,6.0,11.0,1.0,,False
17012,,, пл. Ленина,"пл. Ленина, дом 5",ТП,False,True,55.90636800000001,36.8592864,"улица Ленина, Истра, городской округ Истра, Московская область, ЦФО, 143500, РФ",городской округ Истра, 143500,False,48626.0,9,41.47669621370225,3,19,5.403142857142856,43.363285714285716,5,2,10,0,,8,304.150028636862,6.0,11.0,1.0,,False
23263,,2018.0, пл. Ленина,"пл. Ленина, дом 5 Технопарк",ТП,False,False,55.90636800000001,36.8592864,"улица Ленина, Истра, городской округ Истра, Московская область, ЦФО, 143500, РФ",городской округ Истра, 143500,False,48626.0,9,41.47669621370225,3,19,5.403142857142856,43.363285714285716,5,2,10,0,,8,304.150028636862,6.0,11.0,1.0,,False
2786,,2013.0, ул. Зелинского,"ул. Зелинского, 3",ТП,False,True,55.3041495,38.6600848,"улица Зелинского, городское поселение Воскресенск, Воскресенский район, Московская область, ЦФО, 140209, РФ",Воскресенский, 140209,False,48626.0,10,146.85573622503304,2,12,1.6481428571428571,32.89414285714286,5,0,0,0,,11,62.54871124716497,6.0,11.0,1.0,,False
19402,,2018.0, ул. Менделеева,"ул. Менделеева, дом 7, Элекс",ТП,False,False,55.322185,38.6664479,"улица Менделеева, городское поселение Воскресенск, Воскресенский район, Московская область, ЦФО, 140205, РФ",Воскресенский, 140205,False,48626.0,9,214.7724372953536,2,11,1.9021428571428567,27.87657142857143,5,1,6,0,,5,87.77147365931042,7.0,12.0,2.0,"['пн.—пт.: 09:00–21:00 сб., вс.: 10:00–17:00']",False
13451,141650.0,2017.0, ул. Владыкина,"ул. Владыкина, дом 22",ОПС Б1,False,False,56.320913299999994,36.5530979,"улица Владыкина, Некрасино, Высоковск, городской округ Клин, Московская область, ЦФО, РФ",Высоковск, ЦФО,False,,9,82.458465482565,1,11,0.5115714285714286,18.72157142857143,2,2,4,0,,3,191.23416452232703,6.0,11.0,1.0,,False
14075,143040.0,2017.0, ул. Советская,"ул. Советская, дом 52",ОПС Б1_2,False,False,55.623822600000004,36.9830739,"Отделение связи №143040, 52, Советская улица, Голицыно, Одинцовский городской округ, Московская область, ЦФО, 143050, РФ",Советская улица, 143050,False,,1,209.1310560840884,0,5,2.177714285714286,12.695,1,0,0,0,,2,319.6792291257245,6.0,10.0,1.0,"['пн., сб.: 09:00—18:00 вт.—пт.: 09:00—19:00']",False
10154,143530.0,2017.0, ул. Клубная,"ул. Клубная, дом 2",ОПС Б1_2,False,False,55.8620037,37.1213729,"Клубная улица, Дедовск, городской округ Истра, Московская область, ЦФО, 143530, РФ",городской округ Истра, 143530,False,,17,84.88129380942199,3,14,1.032857142857143,18.617857142857144,6,1,7,0,,2,122.49949422747824,5.0,10.0,1.0,['вт.—пт.: 10:00—19:00 сб.: 09:00—18:00'],False
8447,140090.0,2016.0, ул. Дзержинская,"ул. Дзержинская, дом 21",ОПС Б1_2,False,False,53.848680099999996,27.0654972,"Дзержинская, Путчинский сельский Совет, Дзержинский район, Минская область, 220000, Беларусь",Дзержинский, 220000,False,98715.0,14,257.5654132072891,0,7,0.3898571428571429,22.124714285714287,5,3,8,0,,6,75.5539430273007,5.0,9.0,1.0,['вт.—сб.: 09:00—18:00'],False
1413,,2015.0, ул. Загорская,"ул. Загорская, 22",КЦ,False,False,56.3421515,37.5210645,"Загорская улица, микрорайон имени А.Маркова, Дмитров, Дмитровский городской округ, Московская область, ЦФО, 141800, РФ",Дмитров, 141800,False,69178.0,11,66.31721362101162,2,8,1.548142857142857,29.766142857142853,9,13,10,0,,4,174.77669296463242,7.0,12.0,2.0,['пн.—вс.: 10:00—22:00'],False
10922,141803.0,2017.0, мкр. Аверьянова,"мкр. Аверьянова, дом 3",ОПС Б1_2,False,False,56.353501,37.522876399999994,"мкр. Аверьянова, Профессиональная улица, микрорайон имени Константина Аверьянова, Дмитров, Дмитровский городской округ, Московская область, ЦФО, 141800, РФ",микро имени Константина Аверьянова, 141800,False,69178.0,25,37.32089477626862,0,12,1.626,51.05314285714286,6,2,3,0,,4,167.5452080711509,5.0,9.0,0.0,['пн.—пт.: 10:00—19:00 перерыв: 13:00—14:00'],False
24622,141803.0,, мкр. Аверьянова,"мкр. Аверьянова, дом 3",ОПС Б1,False,False,56.353501,37.522876399999994,"мкр. Аверьянова, Профессиональная улица, микрорайон имени Константина Аверьянова, Дмитров, Дмитровский городской округ, Московская область, ЦФО, 141800, РФ",микро имени Константина Аверьянова, 141800,False,69178.0,25,37.32089477626862,0,12,1.626,51.05314285714286,6,2,3,0,,4,167.5452080711509,5.0,9.0,0.0,['пн.—пт.: 10:00—19:00 перерыв: 13:00—14:00'],False
8437,141801.0,2016.0, мкр. Дзфс,"мкр. Дзфс, дом 25",ОПС Б1,False,False,56.36455060000001,37.53047539999999,"мкр. ДЗФС, Профессиональная улица, микрорайон имени Владимира Махалина, Дмитров, Дмитровский городской округ, Московская область, ЦФО, 141800, РФ",микро имени Владимира Махалина, 141800,False,69178.0,9,29.597808977689468,1,5,0.5801428571428572,11.079428571428574,2,2,1,0,,8,95.48156777051912,6.0,11.0,1.0,,False
12758,141800.0,2017.0, ул. Почтовая,"ул. Почтовая, дом 5",ОПС Б1,False,False,56.3420093,37.5159723,"Отделение связи №141800, 5, Почтовая улица, микрорайон имени А.Маркова, Дмитров, Дмитровский городской округ, Московская область, ЦФО, 141800, РФ",Почтовая улица, 141800,False,69178.0,13,63.045348538785326,2,8,0.8588571428571429,35.438857142857145,9,8,11,0,,3,123.90082553779176,5.0,11.0,1.0,"['пн., ср.—пт.: 08:00—17:00 вт.: 10:00—19:00 сб.: 09:00—18:00 перерыв: 13:00—14:00']",False
22882,,2018.0, ул. Загорская,"ул. Загорская, дом 22",ТП,False,False,56.3421515,37.5210645,"Загорская улица, микрорайон имени А.Маркова, Дмитров, Дмитровский городской округ, Московская область, ЦФО, 141800, РФ",Дмитров, 141800,False,69178.0,11,66.31721362101162,2,8,1.548142857142857,29.766142857142853,9,13,10,0,,4,174.77669296463242,7.0,12.0,2.0,['пн.—вс.: 10:00—22:00'],False
9374,141700.0,2016.0, ул. Дирижабельная,"ул. Дирижабельная, дом 13",ОПС Б1_2,False,False,55.9384374,37.5070466,"ул. Дирижабельная, Новый бульвар, посёлок Краснополянской сельхозшколы, Водники, Долгопрудный, городской округ Долгопрудный, Московская область, ЦФО, 141707, РФ",посёлок Краснополянской сельхозшколы, 141707,False,119387.0,26,68.64454791580599,2,18,0.9692857142857144,43.58114285714286,8,1,7,0,,16,103.31172509337343,6.0,9.0,1.0,,False
25315,141702.0,2018.0, ул. Заводская,"ул. Заводская, дом 10",ОПС Б1,False,False,55.97346999999999,37.504421,"Заводская улица, посёлок Краснополянской сельхозшколы, Хлебниково, Долгопрудный, городской округ Долгопрудный, Московская область, ЦФО, 141720, РФ",Хлебниково, 141720,False,119387.0,12,91.79407833841765,4,18,2.3855714285714287,44.173285714285704,5,1,5,0,,4,194.1001594772945,5.0,9.0,0.0,,False
14072,141707.0,2017.0, ул. Спортивная,"ул. Спортивная, дом 9",ОПС Б1,False,False,55.9411932,37.491603399999995,"Спортивная, Лихачёвское шоссе, посёлок Краснополянской сельхозшколы, Водники, Долгопрудный, городской округ Долгопрудный, Московская область, ЦФО, 141707, РФ",посёлок Краснополянской сельхозшколы, 141707,False,119387.0,20,41.537074776345506,3,20,1.892142857142857,30.666428571428572,6,1,5,0,,12,104.07705732075635,5.0,9.0,0.0,,False
12760,141704.0,2017.0, ш. Московское,"ш. Московское, дом 43 Б",ОПС Б1,False,False,55.925225899999994,37.5266541,"Московское шоссе, Долгопрудный, городской округ Долгопрудный, Московская область, ЦФО, 141700, РФ",городской округ Долгопрудный, 141700,False,119387.0,13,202.3544307903917,1,15,1.1721428571428572,22.138428571428577,6,0,2,0,,9,273.11801598789106,5.0,9.0,0.0,,False
15007,102320.0,2017.0, Домодедово Аэропорт,Домодедово Аэропорт,other,False,False,55.444793999999995,37.754272,"Домодедово, городской округ Домодедово, Московская область, ЦФО, РФ",Московская область, ЦФО,False,88225.0,0,,0,0,0.9465714285714286,17.267714285714284,0,0,0,0,,0,,6.0,11.0,1.0,,False
1406,,2013.0, ш. Каширское,"ш. Каширское, 3",КЦ,False,False,55.4328887,37.7655253,"Отделение связи №142000, 62, Каширское шоссе, Домодедово, городской округ Домодедово, Московская область, ЦФО, 142000, РФ",Каширское шоссе, 142000,False,88225.0,41,44.6328553859871,1,5,1.9681428571428567,38.70542857142857,8,0,3,0,,7,70.42657156659119,7.0,13.0,2.0,"пн.: 11:00–20:00 вт.—пт.: 09:00—20:00 сб.: 09:00—18:00, пн.—вс.: 10:00–22:00",False
10143,142007.0,2016.0, прт Туполева,"прт Туполева, дом 20",ОПС Б1,False,False,55.4181108,37.838726799999996,"проспект Академика Туполева, микрорайон Авиационный, Домодедово, городской округ Домодедово, Московская область, ЦФО, 142007, РФ",Домодедово, 142007,False,88225.0,13,56.73605316044242,0,0,1.7388571428571429,23.963,1,0,0,0,,3,99.59821266091268,5.0,9.0,0.0,['пн.—пт.: 09:00—18:00'],False
12734,142001.0,2017.0, ул. Речная,"ул. Речная, дом 14/1",ОПС Б1,False,False,55.444793999999995,37.754272,"Домодедово, городской округ Домодедово, Московская область, ЦФО, РФ",Московская область, ЦФО,False,88225.0,50,42.49146521040824,0,12,2.189,38.09942857142857,6,0,10,0,,10,194.67458896635202,5.0,9.0,0.0,['пн.—пт.: 10:00—19:00'],False
7635,142000.0,2016.0, ш. Каширское,"ш. Каширское, дом 62",ОПС Б1_2,False,False,55.4328887,37.7655253,"Отделение связи №142000, 62, Каширское шоссе, Домодедово, городской округ Домодедово, Московская область, ЦФО, 142000, РФ",Каширское шоссе, 142000,False,88225.0,58,24.17035035925619,5,18,0.9884285714285714,52.016285714285715,5,1,12,0,,8,67.51566404885699,7.0,13.0,2.0,"пн.: 11:00–20:00 вт.—пт.: 09:00—20:00 сб.: 09:00—18:00, пн.—вс.: 10:00–22:00",False
18774,,2017.0, мкр. Авиационный,"мкр. Авиационный, прт Ак. Туполева, дом 2",ТП,False,True,55.4163468,37.835702500000004,"микрорайон Авиационный, Домодедово, городской округ Домодедово, Московская область, ЦФО, 142007, РФ",городской округ Домодедово, 142007,False,88225.0,50,54.60014842937417,0,15,1.0682857142857145,36.455714285714286,3,1,5,0,,7,52.398476661319286,6.0,11.0,1.0,,False
26850,,2018.0, мкр. Авиационный,"мкр. Авиационный, прт Ак. Туполева, дом 2",ТП,False,True,55.4163468,37.835702500000004,"микрорайон Авиационный, Домодедово, городской округ Домодедово, Московская область, ЦФО, 142007, РФ",городской округ Домодедово, 142007,False,88225.0,50,54.60014842937417,0,15,1.0682857142857145,36.455714285714286,3,1,5,0,,7,52.398476661319286,6.0,11.0,1.0,,False
1414,,2013.0, прт Боголюбова,"прт Боголюбова, 31",КЦ,False,False,56.7365767,37.16296320000001,"проспект Боголюбова, Особая Экономичесская Зона, Чёрная речка, Дубна, городской округ Дубна, Московская область, ЦФО, 141980, РФ",Чёрная речка, 141980,False,63851.0,50,87.4504601509866,1,18,2.0452857142857144,26.53057142857143,6,1,5,0,,11,35.82866831091882,7.0,12.0,2.0,"['пн.—пт.: 09:00—21:00 сб., вс.: 10:00—17:00']",False
7658,141981.0,2016.0, ул. 9 Мая,"ул. 9 Мая, дом 3",ОПС Б1_2,False,False,56.7291919,37.1498339,"улица 9 Мая, Большая Волга, Дубна, городской округ Дубна, Московская область, ЦФО, 141980, РФ",Дубна, 141980,False,63851.0,37,35.54777720541658,2,16,0.8074285714285714,26.769714285714286,9,0,6,0,,12,64.70196594707078,6.0,10.0,1.0,"['пн., сб.: 09:00—18:00 перерыв: 13:00—14:00 вт.—пт.: 09:00—19:00']",False
11296,141983.0,2017.0, ул. Тверская,"ул. Тверская, дом 9",ОПС Б1_2,False,False,56.76326529999999,37.22847120000001,"Дубна, Титовское сельское поселение, городской округ Дубна, Московская область, ЦФО, 141982, РФ",городской округ Дубна, 141982,False,63851.0,12,42.33389433935174,0,11,0.7364285714285714,22.942857142857147,6,0,5,0,,9,65.52306802761446,5.0,9.0,0.0,['пн.—пт.: 10:00—:19:00 перерыв: 13:00—14:00'],False
14328,,2017.0, прт Боголюбова,"прт Боголюбова, дом 19",ТП,True,True,56.7365767,37.16296320000001,"проспект Боголюбова, Особая Экономичесская Зона, Чёрная речка, Дубна, городской округ Дубна, Московская область, ЦФО, 141980, РФ",Чёрная речка, 141980,False,63851.0,61,18.65671641791045,4,8,3.7698571428571435,47.157,5,2,4,0,,7,103.74208040640181,7.0,12.0,2.0,"['пн.—пт.: 09:00—21:00 сб., вс.: 10:00—17:00']",False
17782,,2017.0, прт Боголюбова,"прт Боголюбова, дом 21 мн Мехико",ТП,False,False,56.7365767,37.16296320000001,"проспект Боголюбова, Особая Экономичесская Зона, Чёрная речка, Дубна, городской округ Дубна, Московская область, ЦФО, 141980, РФ",Чёрная речка, 141980,False,63851.0,63,13.881399431147967,3,15,2.5605714285714285,29.707428571428572,4,0,4,0,,11,124.02437260025214,7.0,12.0,2.0,"['пн.—пт.: 09:00—21:00 сб., вс.: 10:00—17:00']",False
1420,,2013.0, ул. Советская,"ул. Советская, 109",КЦ,False,False,55.380164,39.039242,"Егорьевск, 126, Советская улица, Егорьевск, городской округ Егорьевск, Московская область, ЦФО, 140302, РФ",Советская улица, 140302,False,42200.0,18,26.44782857711843,3,15,3.2648571428571427,40.04985714285714,5,6,17,0,,4,101.95515723969092,7.0,12.0,2.0,"пн.—пт.: 09:00—18:00, пн.—пт.: 09:00—21:00 сб., вс.: 10:00—17:00",False
8445,140304.0,2016.0, мкр. 1й,"мкр. 1й, дом 73",ОПС Б1_2,False,False,55.35017815,39.06637259029321,"мкр. Заречье, городской округ Егорьевск, Московская область, ЦФО, РФ",Московская область, ЦФО,False,42200.0,26,133.95054662769346,2,18,1.2065714285714286,35.162571428571425,7,3,9,0,,0,,6.0,11.0,1.0,,False
8442,140300.0,2016.0, мкр. 6й,"мкр. 6й, дом 3",ОПС Б1,False,False,55.35017815,39.06637259029321,"мкр. Заречье, городской округ Егорьевск, Московская область, ЦФО, РФ",Московская область, ЦФО,False,42200.0,55,46.44885468535951,3,8,1.3154285714285714,26.531714285714287,6,0,3,0,,0,,6.0,11.0,1.0,,False
10626,140301.0,2017.0, ул. Советская,"ул. Советская, дом 84",ОПС Б1,False,False,55.380164,39.039242,"Егорьевск, 126, Советская улица, Егорьевск, городской округ Егорьевск, Московская область, ЦФО, 140302, РФ",Советская улица, 140302,False,42200.0,13,76.26924087751286,2,12,2.5142857142857142,37.29385714285714,5,8,17,0,,5,23.314178137034787,7.0,12.0,2.0,"пн.—пт.: 09:00—18:00, пн.—пт.: 09:00—21:00 сб., вс.: 10:00—17:00",False
16603,,2017.0, ш. Касимовское,"ш. Касимовское, дом 1А",ТП,True,False,55.368262699999995,39.0689775,"Касимовское шоссе, Егорьевск, городской округ Егорьевск, Московская область, ЦФО, 140304, РФ",городской округ Егорьевск, 140304,False,42200.0,20,108.3812318784005,1,14,2.0885714285714285,38.67942857142857,5,1,9,0,,9,76.4843461213072,6.0,11.0,1.0,,False
9693,143987.0,2016.0, ул. Колхозная,"ул. Колхозная, дом 7",ОПС Б1,False,False,55.745911899999996,38.0224903,"Колхозная улица, 2 квартал, Железнодорожный, Балашиха, городской округ Балашиха, Московская область, ЦФО, 143987, РФ",Железнодорожный, 143987,False,,0,,0,0,0.05657142857142858,0.05657142857142858,0,0,0,0,,12,88.50758853279417,5.0,9.0,0.0,"Пн-Пт: 10:00-19:00, Сб-Вс: выходной день, пн.—пт.: 10:00—19:00",False
7612,140188.0,2016.0, ул. Баженова,"ул. Баженова, дом 3",ОПС Б1_2,False,False,55.606391099999996,38.0721269,"улица Баженова, Быковка, Жуковский, городской округ Жуковский, Московская область, ЦФО, 140188, РФ",Жуковский, 140188,False,84818.0,56,37.17886181218254,0,1,3.0610000000000004,26.66,4,0,1,0,,8,92.456030743543,6.0,11.0,1.0,['пн.: 11:00—20:00 вт.—пт.: 09:00—20:00 сб.: 09:00—18:00'],False
8841,140181.0,2016.0, ул. Маяковского,"ул. Маяковского, дом 26/7",ОПС Б1,False,False,55.5922279,38.123592200000004,"улица Маяковского, Старый Город, Жуковский, городской округ Жуковский, Московская область, ЦФО, 140180, РФ",Жуковский, 140180,False,84818.0,42,20.895522388059703,4,13,1.8677142857142857,41.62714285714286,4,5,11,0,,10,81.63033017321452,5.0,11.0,1.0,['вт.—пт.: 09:00—20:00 сб.: 09:00—18:00'],False
9377,140185.0,2017.0, ул. Чкалова,"ул. Чкалова, дом 19",ОПС Б1,False,False,55.594525899999994,38.127200099999996,"улица Чкалова, Старый Город, Жуковский, городской округ Жуковский, Московская область, ЦФО, 140180, РФ",Жуковский, 140180,False,84818.0,13,312.62511418353273,4,13,4.269857142857143,38.55314285714286,5,1,3,0,,2,85.66501092441871,5.0,9.0,0.0,['пн.—пт.: 10:00—19:00'],False
1532,,2012.0, ул. Гагарина,"ул. Гагарина, 56",ТП,False,False,55.6092343,38.081832,"улица Гагарина, За океаном, Жуковский, городской округ Жуковский, Московская область, ЦФО, 140180, РФ",Жуковский, 140180,False,84818.0,28,38.55400403907311,3,17,2.9008571428571432,48.09385714285714,8,3,2,0,,8,103.9673038378899,6.0,11.0,1.0,,False
14974,141960.0,, ул. Ленина,"ул. Ленина, дом 16",ОПС Б1,False,False,56.56276999999999,37.4235092,"улица Ленина, Запрудня, Талдомский городской округ, Московская область, ЦФО, 141960, РФ",Талдомский городской округ, 141960,False,,23,67.49916461946866,0,19,0.3652857142857143,8.118428571428572,1,0,1,0,,5,211.08720466918442,6.0,12.0,1.0,,False
14063,140600.0,2018.0, ул. Карла Маркса,"ул. Карла Маркса, дом 48/9",ОПС Б1_2,False,False,54.7558305,38.8769668,"улица Карла Маркса, квартал Южный, Зарайск, городской округ Зарайск, Московская область, ЦФО, 140600, РФ",Зарайск, 140600,False,,6,188.3496934943875,0,17,0.7274285714285714,19.239428571428565,9,17,6,0,,9,225.5374018333807,6.0,11.0,1.0,,False
1462,,2013.0, ул. Ленинская,"ул. Ленинская, 47",ТП,False,False,54.76138420000001,38.8750274,"Ленинская улица, квартал Южный, Зарайск, городской округ Зарайск, Московская область, ЦФО, 140600, РФ",Зарайск, 140600,False,,30,58.25199327428815,1,19,2.3665714285714285,16.44514285714286,3,5,10,0,,11,50.86137078026489,7.0,10.0,2.0,['Пн-Вс: 09:00-19:00'],False
13266,141160.0,, п. Звездный Городок,"п. Звездный Городок, дом 15",ОПС Б1,False,False,55.8777816,38.1051342,"Отделение связи №141160, 15, Чкаловское шоссе, Кожино, Щёлково, городской округ Щёлково, Московская область, ЦФО, 141160, РФ",Чкаловское шоссе, 141160,False,,8,38.69818555959454,2,5,0.4247142857142857,4.007714285714286,1,1,3,0,,5,141.17304441568277,6.0,11.0,1.0,,False
26967,,2019.0, мкр. Супонево,"мкр. Супонево, к.3",other,False,False,55.7436211,36.8741388716434,"микрорайон Супонево, Звенигород, Одинцовский городской округ, Московская область, ЦФО, РФ",Одинцовский городской округ, ЦФО,False,70896.0,9,180.00550720517546,0,9,3.768857142857143,27.869142857142855,1,0,4,0,,3,201.1578203830757,6.0,11.0,1.0,,False
9913,143180.0,2016.0, ул. Почтовая,"ул. Почтовая, дом 23",ОПС Б1_2,False,False,55.732185,36.8553113,"Отделение связи №143180, 23, Почтовая улица, Звенигород, Одинцовский городской округ, Московская область, ЦФО, 143180, РФ",Почтовая улица, 143180,False,70896.0,11,96.67276055385582,6,13,0.7968571428571428,22.41728571428572,8,3,9,0,,4,211.29025812583438,6.0,9.0,1.0,['пн.—сб.: 09:00—18:00'],False
1425,,2013.0, ул. Новокрюковская,"ул. Новокрюковская, 1824",КЦ,False,False,55.98214839999999,37.16867379999999,"Улица Новокрюковская, Новокрюковская улица, 19-й микрорайон, ЦИЭ, район Крюково, Зеленоградский административный округ, Москва, ЦФО, 124681, РФ",19-й микро, 124681,False,,55,45.43054106037142,4,28,2.4034285714285715,58.594428571428566,5,2,7,0,,20,171.4047682081539,6.0,11.0,1.0,,False
7447,124575.0,2016.0, 10й мкр.,"10й мкр., д.1006 Б",ОПС Б1_2,False,False,56.00725625,37.2070751006335,"1-й микрорайон, Матушкино, Зеленоград, Зеленоградский административный округ, Москва, ЦФО, 124305, РФ",Зеленоград, 124305,False,,102,68.8672954928915,0,0,0.5955714285714285,44.75442857142857,0,0,0,0,,8,102.12980353394369,6.0,11.0,1.0,,False
10145,124365.0,2017.0, 16й мкр,"16й мкр, к. 1629",ОПС Б1_2,False,False,56.00725625,37.2070751006335,"1-й микрорайон, Матушкино, Зеленоград, Зеленоградский административный округ, Москва, ЦФО, 124305, РФ",Зеленоград, 124305,False,,29,93.97356761405632,1,6,0.6652857142857143,61.691571428571436,3,0,0,0,,11,205.32697546183655,6.0,11.0,1.0,,False
10501,124498.0,2017.0, 4й мкр,"4й мкр, к.426А",ОПС Б1_2,False,False,56.00725625,37.2070751006335,"1-й микрорайон, Матушкино, Зеленоград, Зеленоградский административный округ, Москва, ЦФО, 124305, РФ",Зеленоград, 124305,False,,27,92.897709370719,3,13,1.3947142857142858,19.260571428571428,3,0,2,0,,6,415.6883889549509,6.0,11.0,1.0,,False
9373,124489.0,2016.0, 6й мкр,"6й мкр, дом 601",ОПС Б1_2,False,False,56.00725625,37.2070751006335,"1-й микрорайон, Матушкино, Зеленоград, Зеленоградский административный округ, Москва, ЦФО, 124305, РФ",Зеленоград, 124305,False,,34,41.15318113123056,1,5,1.6065714285714283,58.778285714285715,4,1,2,0,,7,78.37242230722818,6.0,11.0,1.0,,False
15973,141280.0,2017.0, ул. Дзержинского,"ул. Дзержинского, дом 4",ОПС Б1,False,False,55.97113220000001,37.9099282,"улица Дзержинского, Ивантеевка, городской округ Ивантеевка, Московская область, ЦФО, 141282, РФ",городской округ Ивантеевка, 141282,False,72457.0,5,220.0075435633325,4,9,3.478857142857142,41.86671428571429,5,0,7,0,,5,31.67908250267332,5.0,9.0,1.0,['вт.—сб.: 09:00—18:00'],False
14070,141860.0,2017.0, ул. Икшанская,"ул. Икшанская, дом 8",ОПС Б1,False,False,56.17271650000001,37.5077964,"Икша, Икшанская улица, Икша, Дмитровский городской округ, Московская область, ЦФО, 141863, РФ",Икша, 141863,False,,6,157.78773834496928,0,6,0.26757142857142857,3.881142857142857,1,2,1,0,,2,396.6423175745232,5.0,9.0,1.0,['вт.—пт.: 09:00—18:00 сб.: 09:00—17:00 перерыв: 13:00—14:00'],False
8071,143500.0,2016.0, ул. Ленина,"ул. Ленина, дом 75",ОПС Б1_2,False,False,55.90636800000001,36.8592864,"улица Ленина, Истра, городской округ Истра, Московская область, ЦФО, 143500, РФ",городской округ Истра, 143500,False,76495.0,27,54.73767409221567,3,16,0.6195714285714286,34.077285714285715,4,0,7,0,,7,89.80065048651537,6.0,11.0,1.0,['пн.: 11:00—20:00 вт.—пт.: 09:00—20:00 сб.: 09:00—18:00'],False
26976,,2018.0, пл. Воскресенская,"пл. Воскресенская, дом 2А",ТП,False,False,55.9433287,36.5996271,"Воскресенская, Ядромино, городской округ Истра, Московская область, ЦФО, 143560, РФ",городской округ Истра, 143560,False,76495.0,8,18.049830779772872,0,7,1.7574285714285711,25.19871428571428,3,0,2,0,,2,46.65223763608294,6.0,11.0,1.0,,False
23741,,2018.0, пл. Революции,"пл. Революции, дом 6",ТП,False,False,55.91402289999999,36.8604792,"площадь Революции, Истра, городской округ Истра, Московская область, ЦФО, 143500, РФ",городской округ Истра, 143500,False,76495.0,25,16.56985321729442,4,13,4.768285714285715,34.87042857142857,3,1,6,0,,5,159.91233118341205,6.0,11.0,1.0,,False
11241,142900.0,2017.0, ул. Коммуны,"ул. Коммуны, дом 2",ОПС Б1,False,False,54.8376951,38.1457889,"улица Коммуны, Кашира-1, Кашира, городской округ Кашира, Московская область, ЦФО, 142900, РФ",Кашира, 142900,False,43762.0,1,239.7288603547102,0,2,0.13414285714285715,5.926,1,2,5,0,,5,215.95937012162292,5.0,9.0,0.0,['пн.—пт.: 09:00—18:00 перерыв: 13:00—14:00'],False
7618,142904.0,2016.0, ул. Садовая,"ул. Садовая, дом 22",ОПС Б1_2,False,False,54.7860919,38.265093,"Садовая улица, Ожерелье, Кашира, городской округ Кашира, Московская область, ЦФО, 142921, РФ",Кашира, 142921,False,43762.0,25,60.07810317187682,0,12,0.174,12.212428571428573,7,1,1,0,,2,211.99941366025584,5.0,11.0,0.0,['пн.: 11:00—20:00 вт.—пт.: 09:00—18:00 перерыв: 13:00—14:00'],False
10153,141601.0,2016.0, пл. Советская,"пл. Советская, дом 1",ОПС Б1,False,False,54.01096625,38.290943362759705,"Советская площадь, 41-й квартал, Клин, Новомосковск, городской округ Новомосковск, Тульская область, ЦФО, 301650, РФ",Клин, 301650,False,54795.0,16,62.410550827030065,3,12,4.373714285714286,35.116571428571426,6,1,9,0,,10,22.84362367912532,5.0,9.0,0.0,['пн.—пт.: 10:00—19:00'],False
9689,141612.0,2016.0, ул. Карла Маркса,"ул. Карла Маркса, дом 70 /1",ОПС Б1_2,False,False,56.324562199999995,36.7188864,"улица Карла Маркса, Клин, городской округ Клин, Московская область, ЦФО, 141606, РФ",городской округ Клин, 141606,False,54795.0,8,131.81943880332898,2,15,0.986,23.297142857142855,6,0,4,0,,8,65.44227244296643,6.0,11.0,1.0,['пн.: 11:00—20:00 вт.—пт.: 09:00—20:00 сб.: 09:00—18:00'],False
13271,141606.0,2017.0, ул. Литейная,"ул. Литейная, дом 23 А",ОПС Б1,False,False,56.330158999999995,36.71767620000001,"Литейная улица, Клин, городской округ Клин, Московская область, ЦФО, 141606, РФ",городской округ Клин, 141606,False,54795.0,26,73.58224092503578,4,26,0.4661428571428571,49.347,13,2,7,0,,9,158.99025610738119,5.0,9.0,0.0,"пн.—пт.: 10:00—19:00, пн.—пт.: 10:00—19:00",False
6717,,2015.0,  ул. Карла Маркса,"ул. Карла Маркса, д.4",other,True,False,56.324562199999995,36.7188864,"улица Карла Маркса, Клин, городской округ Клин, Московская область, ЦФО, 141606, РФ",городской округ Клин, 141606,False,54795.0,22,97.99163907033044,2,11,1.6621428571428571,38.931999999999995,8,0,3,0,,8,30.8507859829767,6.0,11.0,1.0,['пн.: 11:00—20:00 вт.—пт.: 09:00—20:00 сб.: 09:00—18:00'],False
17480,,2017.0, ул. Гагарина,"ул. Гагарина, дом 5/6",ТП,False,True,56.3267769,36.72404,"улица Гагарина, Клин, городской округ Клин, Московская область, ЦФО, 141606, РФ",городской округ Клин, 141606,False,54795.0,18,74.55593644185096,6,17,3.780857142857143,58.445428571428565,10,0,7,0,,12,23.92719334609164,6.0,11.0,1.0,,False
13260,108804.0,2017.0, ул. Ленина,"ул. Ленина, дом 4",ОПС Б1,False,False,55.6020012,37.1685776,"улица Ленина, поселение Кокошкино, Новомосковский административный округ, Москва, ЦФО, 143390, РФ",Новомосковский административный округ, 143390,False,,32,34.24714598681721,1,10,1.0207142857142857,26.336714285714287,2,0,6,0,,9,170.64114549146763,5.0,9.0,1.0,['вт.—сб.: 09:00—18:00'],False
1407,,2013.0, пл. Восстания,"пл. Восстания, 6",КЦ,False,False,55.0841366,38.803199400000004,"площадь Восстания, Коломна, Коломенский городской округ, Московская область, ЦФО, 140408, РФ",Коломенский городской округ, 140408,False,53791.0,22,66.68569194631374,8,22,0.3698571428571429,58.975,7,0,6,0,,13,102.01795516797053,7.0,12.0,2.0,"['пн.—пт.: 09:00—21:00 сб., вс.: 10:00—17:00']",False
7601,140407.0,2016.0, пл. Советская,"пл. Советская, дом 5",ОПС Б1,False,False,55.0931892,38.768448,"Площадь Советская, проспект Кирова, Коломна, Коломенский городской округ, Московская область, ЦФО, 140407, РФ",Коломна, 140407,False,53791.0,26,187.920464920962,2,16,4.881285714285714,58.21414285714286,3,1,2,0,,14,48.43277832712821,5.0,9.0,0.0,['пн.—пт.: 10:00—19:00'],False
8072,140411.0,2016.0, прт Кирова,"прт Кирова, дом 48",ОПС Б1_2,False,False,55.090436499999996,38.7668012,"проспект Кирова, Коломна, Коломенский городской округ, Московская область, ЦФО, 140407, РФ",Коломенский городской округ, 140407,False,53791.0,19,32.12424365676251,1,7,1.1277142857142857,36.62242857142857,1,0,4,0,,11,145.04706144357084,5.0,9.0,1.0,['вт.—сб.: 09:00—18:00'],False
16490,140400.0,2017.0, ул. Октябрьской революции,"ул. Октябрьской революции, дом 188",ОПС Б1,False,False,55.095794,38.765313,"улица Октябрьской Революции, Коломна, Коломенский городской округ, Московская область, ЦФО, 140407, РФ",Коломенский городской округ, 140407,False,53791.0,11,76.02056796872975,1,13,5.071285714285715,41.85928571428571,5,17,11,0,,12,87.41542709745987,6.0,11.0,1.0,,False
9695,140408.0,2016.0, ул. Октябрьской революции,"ул. Октябрьской революции, дом 342",ОПС Б1_2,False,False,55.095794,38.765313,"улица Октябрьской Революции, Коломна, Коломенский городской округ, Московская область, ЦФО, 140407, РФ",Коломенский городской округ, 140407,False,53791.0,18,59.859864567628286,6,19,3.9841428571428565,49.781714285714294,6,0,2,0,,11,33.14810793210867,6.0,11.0,1.0,,False
19297,,2018.0, ул. Астахова,"ул. Астахова, дом 4",ТП,False,False,55.067598200000006,38.7554934,"улица Астахова, Коломна, Коломенский городской округ, Московская область, ЦФО, 140411, РФ",Коломенский городской округ, 140411,False,53791.0,14,65.72674079349488,1,11,0.6162857142857143,27.137857142857147,6,0,4,0,,13,60.48920635569984,6.0,11.0,1.0,,False
18554,,2017.0, ул. Октябрьской революции,"ул. Октябрьской революции, дом 362",ТП,False,True,55.095794,38.765313,"улица Октябрьской Революции, Коломна, Коломенский городской округ, Московская область, ЦФО, 140407, РФ",Коломенский городской округ, 140407,False,53791.0,25,98.12510597378115,8,22,1.957857142857143,60.708285714285715,9,1,7,0,,13,96.04567488475323,6.0,11.0,1.0,,False
27074,,, ул. Октябрьской революции,"ул. Октябрьской революции, дом 362",ТП,False,True,55.095794,38.765313,"улица Октябрьской Революции, Коломна, Коломенский городской округ, Московская область, ЦФО, 140407, РФ",Коломенский городской округ, 140407,False,53791.0,20,98.12510597378115,8,20,1.957142857142857,60.61014285714285,6,0,5,0,,13,96.04567488475323,6.0,11.0,1.0,,False
17659,,2017.0, ул. Октябрьской революции,"ул. Октябрьской революции, дом 362",ТП,True,False,55.095794,38.765313,"улица Октябрьской Революции, Коломна, Коломенский городской округ, Московская область, ЦФО, 140407, РФ",Коломенский городской округ, 140407,False,53791.0,20,98.12510597378115,8,20,1.957142857142857,60.61014285714285,6,0,5,0,,13,96.04567488475323,6.0,11.0,1.0,,False
26476,,2018.0, ул. Октябрьской революции,"ул. Октябрьской революции, дом 88а",ТП,True,False,55.095794,38.765313,"улица Октябрьской Революции, Коломна, Коломенский городской округ, Московская область, ЦФО, 140407, РФ",Коломенский городской округ, 140407,False,53791.0,1,435.7966155575699,0,0,2.4847142857142863,15.356571428571426,1,0,0,0,,4,224.1217606568155,6.0,11.0,1.0,,False
13264,108814.0,, п. Коммунарка,"п. Коммунарка, дом 14",ОПС Б1,False,False,55.22773000000001,30.388088,"Коммунарка, Бабиничский сельский Совет, Витебский район, Витебская область, Беларусь",Витебский, Витебская область,False,,5,243.77411402332027,0,0,0.17185714285714285,16.490285714285715,0,0,0,0,,6,204.2991377119827,6.0,11.0,1.0,,False
25825,,2018.0, ул. Космонавтов,"ул. Космонавтов, дом 20А",other,False,False,55.9104838,37.8676196,"Альфа-Банк, проспект Космонавтов, Костино, Королёв, городской округ Королёв, Московская область, ЦФО, 141080, РФ",Костино, 141080,False,100580.0,29,34.570850214628265,4,23,2.3497142857142856,95.43714285714287,5,0,5,0,,10,38.984948915250676,6.0,11.0,1.0,,False
8753,141080.0,2016.0, ул. Горького,"ул. Горького, дом 2А",ОПС Б1,False,False,55.91282629999999,37.867855799999994,"улица Горького, Костино, Королёв, городской округ Королёв, Московская область, ЦФО, 141080, РФ",Королёв, 141080,False,100580.0,23,139.50434168858897,5,20,4.039571428571429,54.61600000000001,4,4,4,0,,15,74.78341788196869,5.0,9.0,0.0,['пн.—пт.: 10:00—19:00'],False
8440,141070.0,2016.0, ул. Калинина,"ул. Калинина, дом 15",ОПС Б1_2,False,False,55.9227243,37.8157874,"улица Калинина, Подлипки, Королёв, городской округ Королёв, Московская область, ЦФО, 141070, РФ",Королёв, 141070,False,100580.0,6,222.60957614287426,4,21,3.3642857142857143,47.23514285714285,9,5,8,0,,6,168.98000978470483,6.0,11.0,1.0,['пн.: 11:00—20:00 вт.—пт.: 09:00—20:00 сб.: 09:00—18:00'],False
26313,,2018.0, прт Космонавтов,"прт Космонавтов, дом 23А",ТП,False,False,55.9072752,37.866326,"проспект Космонавтов, Костино, Королёв, городской округ Королёв, Московская область, ЦФО, 141080, РФ",Королёв, 141080,False,100580.0,34,34.06779764332337,1,19,3.7724285714285712,69.11614285714286,5,0,4,0,,5,48.91903467633548,5.0,9.0,0.0,['пн.—пт.: 09:00—18:00 перерыв: 13:00—14:00'],False
25871,,2018.0, прд 1й Покровский,"прд 1й Покровский, дом 5 Рестор",ТП,False,False,55.656343400000004,37.849430299999995,"1-й Покровский проезд, Силикат, Котельники, городской округ Котельники, Московская область, ЦФО, 140053, РФ",Котельники, 140053,False,86709.0,26,114.51029909487207,3,12,0.9332857142857144,48.468,5,0,5,0,,9,308.93809888367264,6.0,11.0,1.0,,False
24403,,2018.0, ш. Дзержинское,"ш. Дзержинское, дом 7/7",ТП,False,False,55.658707799999995,37.8611888,"Дзержинское шоссе, Южный, Котельники, городской округ Котельники, Московская область, ЦФО, 140054, РФ",Котельники, 140054,False,86709.0,22,77.19823723686571,3,13,1.5122857142857142,98.87871428571428,5,0,4,0,,9,162.1258995557151,6.0,11.0,1.0,,False
11479,141292.0,2017.0, мкр. Северный,"мкр. Северный, дом 5",ОПС Б1,False,False,56.11936070000001,38.1457746,"Микрорайон Северный, проспект Испытателей, Красноармейск, городской округ Красноармейск, Московская область, ЦФО, 141292, РФ",Красноармейск, 141292,False,,20,33.37414891790731,0,13,0.8148571428571428,15.547285714285715,2,0,4,0,,5,220.42355792315567,5.0,9.0,0.0,['пн.—пт.: 09:00—18:00 перерыв: 13:00—14:00'],False
10146,143405.0,2016.0, ул. Вокзальная,"ул. Вокзальная, дом 27",ОПС Б1_2,False,False,55.8136053,37.3431401,"Вокзальная улица, Павшино, Красногорск, городской округ Красногорск, Московская область, ЦФО, 143405, РФ",Красногорск, 143405,False,98161.0,24,72.38805970149255,1,24,2.8792857142857144,81.19728571428571,6,0,11,0,,11,58.542861664045326,5.0,9.0,0.0,['пн.—пт.: 10:00—19:00'],False
9688,143406.0,2016.0, ул. Железнодорожная,"ул. Железнодорожная, дом 24",ОПС Б1,False,False,55.812941200000004,37.319736400000004,"Железнодорожная улица, Райцентр, Красногорск, городской округ Красногорск, Московская область, ЦФО, 143402, РФ",Красногорск, 143402,False,98161.0,62,32.912055330149165,0,9,0.9368571428571428,22.739285714285717,2,0,9,0,,3,142.47673949281182,5.0,9.0,0.0,['пн.—пт.: 10:00—19:00'],False
15976,143408.0,2017.0, ул. Карбышева,"ул. Карбышева, дом 19 А",ОПС Б1,False,False,55.8364424,37.3063607,"улица Карбышева, Чернево, Красногорск, городской округ Красногорск, Московская область, ЦФО, 143408, РФ",Красногорск, 143408,False,98161.0,15,104.8235211905575,1,10,1.1775714285714285,28.610142857142854,5,0,3,0,,8,248.86017728221358,5.0,9.0,0.0,['пн.—пт.: 10:00—19:00'],False
5908,,2015.0, ул. Знаменская,"ул. Знаменская, д. 5 Технопоинт",ТП,False,False,55.8681559,37.32403710000001,"Знаменская улица, Отрадное, городской округ Красногорск, Московская область, ЦФО, 143442, РФ",городской округ Красногорск, 143442,False,98161.0,1,254.7411862138993,0,3,9.113857142857142,154.03914285714285,1,0,0,0,,9,205.3120570407829,6.0,11.0,1.0,,False
18596,,2017.0, ул. Знаменская,"ул. Знаменская, дом 5",ТП,True,True,55.8681559,37.32403710000001,"Знаменская улица, Отрадное, городской округ Красногорск, Московская область, ЦФО, 143442, РФ",городской округ Красногорск, 143442,False,98161.0,9,68.75803685380572,2,9,3.4071428571428566,69.061,2,0,7,0,,9,205.3120570407829,6.0,11.0,1.0,,False
13272,141321.0,2017.0, ул. 1 Мая,"ул. 1 Мая, дом 26",ОПС Б1,False,False,56.44140079999999,38.24298870000001,"улица 1 Мая, городское поселение Краснозаводск, Сергиево-Посадский район, Московская область, ЦФО, 141321, РФ",Сергиево-Посадский, 141321,False,,2,298.6343014107052,1,3,1.4477142857142855,10.019285714285717,4,1,2,0,,6,62.65102048303091,5.0,9.0,0.0,['пн.—пт.: 10:00—19:00'],False
12733,143070.0,2017.0, ул. Колхозная,"ул. Колхозная, дом 6",ОПС Б1,False,False,55.575855000000004,36.68853170000001,"Колхозная улица, Кубинка, Одинцовский городской округ, Московская область, ЦФО, 143070, РФ",Одинцовский городской округ, 143070,False,,15,71.34578150875893,1,7,0.599,8.573428571428572,2,1,3,0,,6,245.72984929125354,6.0,11.0,1.0,,False
10920,142620.0,2017.0, ул. Вокзальная,"ул. Вокзальная, дом 9",ОПС Б1,False,False,55.57381170000001,38.9241845727394,"Куровское, Вокзальная улица, Куровское, городской округ Ликино-Дулёво, Московская область, ЦФО, 142620, РФ",Куровское, 142620,False,,11,82.59680455663677,2,23,1.166,11.493,6,4,4,0,,9,131.08225418584135,5.0,9.0,0.0,['пн.—пт.: 09:00—18:00'],False
14071,141733.0,2017.0, ул. Батарейная,"ул. Батарейная, дом 2",ОПС Б1,False,False,56.0267887,37.4689555,"Батарейная улица, Нестериха, Южный, Лобня, городской округ Лобня, Московская область, ЦФО, 141733, РФ",Южный, 141733,False,85698.0,13,181.0420691065109,2,12,0.5921428571428572,41.883,1,4,1,0,,5,223.3451307938469,5.0,9.0,0.0,['пн.—пт.: 10:00—19:00 перерыв: 13:00—14:00'],False
12761,141730.0,2017.0, ул. Ленина,"ул. Ленина, дом 5",ОПС Б1_2,False,False,56.0088191,37.446910100000004,"улица Ленина, Красная Поляна, Лобня, городской округ Лобня, Московская область, ЦФО, 141732, РФ",Лобня, 141732,False,85698.0,19,84.35807163745413,6,15,0.4671428571428571,41.01228571428572,12,1,7,0,,6,199.7060102561076,5.0,9.0,0.0,['пн.—пт.: 10:00—19:00 перерыв: 13:00—14:00'],False
9691,141732.0,2016.0, ул. Циолковского,"ул. Циолковского, дом 13 А",ОПС Б1_2,False,False,56.0139071,37.4644194,"улица Циолковского, Нестериха, Южный, Лобня, городской округ Лобня, Московская область, ЦФО, 141730, РФ",Южный, 141730,False,85698.0,11,81.78369070326855,1,7,2.392,34.558,4,1,2,0,,7,96.37273097028752,5.0,9.0,0.0,['пн.—пт.: 10:00—19:00 перерыв: 13:00—14:00'],False
12743,143800.0,2017.0, ул. Центральная,"ул. Центральная, дом 11",ОПС Б1,False,False,56.2275451,35.6306789,"Центральная улица, Лотошино, Лотошинский район, Московская область, ЦФО, 143800, РФ",Лотошинский, 143800,False,,5,92.96962090983543,3,4,1.475142857142857,8.661285714285713,3,4,4,0,,3,255.29369735485284,5.0,9.0,0.0,['пн.—пт.: 09:00—18:00'],False
8074,140500.0,2016.0, ул. Жуковского,"ул. Жуковского, дом 2/8",ОПС Б1_2,False,False,54.9471488,39.0281349,"улица Жуковского, Луховицы, городской округ Луховицы, Московская область, ЦФО, 140500, РФ",городской округ Луховицы, 140500,False,,34,51.49794477339139,3,18,2.6010000000000004,29.363714285714284,7,0,5,0,,6,94.82018014488709,5.0,9.0,0.0,['пн.—пт.: 10:00—19:00'],False
1461,,2013.0, ул. Пушкина,"ул. Пушкина, 202а",ТП,False,False,54.9457412,39.0186144,"улица Пушкина, Луховицы, городской округ Луховицы, Московская область, ЦФО, 140500, РФ",городской округ Луховицы, 140500,False,,30,29.066182230075288,2,18,1.2924285714285717,25.328142857142854,4,0,6,0,,6,89.78204345164629,6.0,11.0,1.0,,False
6000,,2015.0, ул. Пушкина,"ул. Пушкина, д. 125",ТП,True,False,54.9457412,39.0186144,"улица Пушкина, Луховицы, городской округ Луховицы, Московская область, ЦФО, 140500, РФ",городской округ Луховицы, 140500,False,,18,41.15994696459008,0,9,2.641,47.26585714285714,1,0,2,0,,7,178.177014062947,6.0,11.0,1.0,,False
12739,140080.0,2017.0, ул. Первомайская,"ул. Первомайская, дом 2",ОПС Б1,False,False,55.58039470000001,37.9087551,"Отделение связи №140080, 2, Первомайская улица, Тураево, Лыткарино, городской округ Лыткарино, Московская область, ЦФО, 140081, РФ",Первомайская улица, 140081,False,,17,213.9410502934589,4,21,3.0631428571428567,38.54185714285714,9,7,5,0,,8,35.672890754379466,5.0,9.0,0.0,['пн.—пт.: 10:00—19:00'],False
4444,,2014.0, ул. Смирновская,"ул. Смирновская, д. 16",КЦ,False,False,55.67915010000001,37.8943177,"Альфа-Банк, 16, Смирновская улица, Красная горка, Люберцы, городской округ Люберцы, Московская область, ЦФО, 140005, РФ",Смирновская улица, 140005,False,90126.0,20,231.4407594355214,11,26,6.461714285714287,86.81571428571428,7,5,6,0,,21,150.08165891924264,7.0,12.0,2.0,"['пн.—пт.: 09:00—21:00 сб., вс.: 10:00—17:00']",False
27085,,, ул. 8 марта,"ул. 8 марта, дом 30Б",other,False,False,55.704592299999995,37.891663,"улица 8 Марта, Люберцы, городской округ Люберцы, Московская область, ЦФО, 140007, РФ",городской округ Люберцы, 140007,False,90126.0,10,65.55705743103005,2,21,4.6737142857142855,45.112571428571435,2,1,4,0,,13,133.59042748930156,6.0,11.0,1.0,,False
25814,,2018.0, ул. Инициативная,"ул. Инициативная, дом 7Б",other,False,False,55.683439899999996,37.89765120000001,"Инициативная улица, Красная горка, Люберцы, городской округ Люберцы, Московская область, ЦФО, 140000, РФ",Люберцы, 140000,False,90126.0,15,83.06409316412767,1,16,4.0925714285714285,106.67328571428571,13,1,8,0,,7,207.30961818052174,5.0,9.0,0.0,['пн.—пт.: 10:00—19:00'],False
7699,140000.0,2016.0, прт Октябрьский,"прт Октябрьский, дом 211",ОПС Б1_2,False,False,55.676977,37.9001025,"Отделение связи №140000, 211, Октябрьский проспект, Красная горка, Люберцы, городской округ Люберцы, Московская область, ЦФО, 140014, РФ",Октябрьский проспект, 140014,False,90126.0,15,56.95648329281249,8,13,4.766285714285714,60.18871428571428,7,3,10,0,,11,91.35316013329776,6.0,11.0,1.0,"пн.: 11:00—20:00 вт.—пт.: 09:00—20:00 сб.: 09:00—18:00, вт.—сб.: 09:00—18:00",False
19382,140002.0,2018.0, прт Октябрьский,"прт Октябрьский, дом 91/97",ОПС Б1,False,False,55.676977,37.9001025,"Отделение связи №140000, 211, Октябрьский проспект, Красная горка, Люберцы, городской округ Люберцы, Московская область, ЦФО, 140014, РФ",Октябрьский проспект, 140014,False,90126.0,42,44.187675651007346,4,25,4.014285714285714,66.54514285714286,12,0,3,0,,16,106.30072466011585,6.0,11.0,1.0,"пн.: 11:00—20:00 вт.—пт.: 09:00—20:00 сб.: 09:00—18:00, вт.—сб.: 09:00—18:00",False
21596,140009.0,2018.0, ул. Красногорская,"ул. Красногорская, дом 21, к.1",ОПС Б1,False,False,55.689907,37.8843709,"Красногорская улица, Красная горка, Люберцы, городской округ Люберцы, Московская область, ЦФО, 140002, РФ",Люберцы, 140002,False,90126.0,19,120.00083537245428,0,13,5.573714285714287,41.68685714285714,5,0,4,0,,12,35.711898847777306,5.0,9.0,0.0,['пн.—пт.: 10:00—19:00'],False
14933,140011.0,2017.0, ул. Юбилейная,"ул. Юбилейная, дом 13А",ОПС Б1,False,False,55.6672556,37.8780586,"Юбилейная улица, Красная горка, Люберцы, городской округ Люберцы, Московская область, ЦФО, 140011, РФ",Люберцы, 140011,False,90126.0,34,26.119402985074625,1,17,0.7618571428571429,77.38942857142857,7,0,2,0,,15,71.83199254228741,5.0,9.0,0.0,['пн.—пт.: 10:00—19:00'],False
12737,140006.0,2017.0, ул. Южная,"ул. Южная, дом 8",ОПС Б1,False,False,55.639743,38.028859600000004,"ул. Южная, МЭЗ-1, Малаховка, городской округ Люберцы, Московская область, ЦФО, 140140, РФ",Малаховка, 140140,False,90126.0,15,51.55198817662849,3,14,1.8718571428571429,44.99800000000001,3,1,3,0,,11,157.47860144515178,5.0,9.0,0.0,['пн.—пт.: 10:00—19:00'],False
1485,,2013.0, прт Октябрьский,"прт Октябрьский, 146",ТП,False,False,55.676977,37.9001025,"Отделение связи №140000, 211, Октябрьский проспект, Красная горка, Люберцы, городской округ Люберцы, Московская область, ЦФО, 140014, РФ",Октябрьский проспект, 140014,False,90126.0,15,50.39938508926282,9,29,4.950857142857143,102.57757142857143,9,3,8,0,,21,54.8799292861201,6.0,11.0,1.0,"пн.: 11:00—20:00 вт.—пт.: 09:00—20:00 сб.: 09:00—18:00, вт.—сб.: 09:00—18:00",False
26641,,2018.0, прт Октябрьский,"прт Октябрьский, дом 366",ТП,True,False,55.676977,37.9001025,"Отделение связи №140000, 211, Октябрьский проспект, Красная горка, Люберцы, городской округ Люберцы, Московская область, ЦФО, 140014, РФ",Октябрьский проспект, 140014,False,90126.0,14,44.85689231984693,6,11,2.064857142857143,69.70442857142856,4,0,2,0,,15,98.3773450911212,6.0,11.0,1.0,"пн.: 11:00—20:00 вт.—пт.: 09:00—20:00 сб.: 09:00—18:00, вт.—сб.: 09:00—18:00",False
25548,,2018.0, ул. Сакко и Ванцетти,"ул. Сакко и Ванцетти, дом 1",other,False,False,55.6473552,37.9892601,"улица Сакко и Ванцетти, МПС, Малаховка, городской округ Люберцы, Московская область, ЦФО, 140050, РФ",Малаховка, 140050,False,,5,29.71049139909609,0,9,0.3267142857142857,6.966,1,1,3,0,,5,315.68928358310427,5.0,9.0,0.0,['пн.—пт.: 10:00—19:00'],False
14971,140032.0,2017.0, ул. Шоссейная,"ул. Шоссейная, дом 27",ОПС Б1,False,False,55.644911300000004,38.0069653,"Шоссейная улица, МЭЗ-1, Малаховка, городской округ Люберцы, Московская область, ЦФО, 140032, РФ",Малаховка, 140032,False,,1,106.86504627516511,0,0,2.3167142857142857,14.483857142857143,9,2,1,0,,2,148.70982986899642,5.0,9.0,1.0,['вт.—сб.: 09:00—18:00'],False
15751,142850.0,, ул. Победы,"ул. Победы, дом 2",ОПС Б1,False,False,55.10513589999999,38.179843299999995,"улица Победы, Малино, городской округ Ступино, Московская область, ЦФО, 142817, РФ",городской округ Ступино, 142817,False,,1,42.72021427272153,2,2,0.4797142857142857,10.987571428571426,2,0,1,0,,4,113.3247717774819,6.0,11.0,1.0,,False
16478,108809.0,2017.0, аллея Липовая,"аллея Липовая, дом 1",ОПС Б1,False,False,55.5952656,37.2076251,"улица Липовая Аллея, Марушкино, Новомосковский административный округ, Москва, ЦФО, 108809, РФ",Новомосковский административный округ, 108809,False,,5,92.32341673107143,2,2,0.5747142857142857,8.661,1,1,1,0,,2,455.5595777154684,6.0,11.0,1.0,,False
26640,,2018.0, ул. Промышленная,"ул. Промышленная, дом 1",ТП,False,False,55.55461170000001,38.069911299999994,"Промышленная улица, ООО 'Меридиан', Чулковское сельское поселение, Раменский район, Московская область, ЦФО, 140125, РФ",Чулковское сельское поселение, 140125,False,,2,127.71881707580015,0,4,0.2107142857142857,21.39257142857143,1,0,2,0,,1,563.9485630207115,6.0,11.0,1.0,,False
15971,142840.0,2017.0, ул. Советская,"ул. Советская, дом 36",ОПС Б1,False,False,55.11926500000001,37.9488316,"Отделение связи №142840, 36, Советская улица, Михнево, городской округ Ступино, Московская область, ЦФО, 142840, РФ",Советская улица, 142840,False,,8,30.95890822789782,1,14,0.6848571428571428,10.400857142857145,2,1,2,0,,3,112.04969778581172,5.0,9.0,0.0,['пн.—пт.: 09:00—18:00 перерыв: 13:00—14:00'],False
15753,143200.0,2017.0, ул. 20 Января,"ул. 20 Января, дом 18",ОПС Б1_2,False,False,55.5038142,36.0312276,"улица 20 Января, Можайск, Можайский городской округ, Московская область, ЦФО, 143200, РФ",Можайский городской округ, 143200,False,55515.0,30,46.099836452180604,0,8,0.16157142857142856,6.88857142857143,7,0,15,0,,7,238.4150251446984,6.0,9.0,1.0,['пн.—сб.: 09:00—18:00'],False
8075,143204.0,2016.0, ул. Красных партизан,"ул. Красных партизан, дом 2",ОПС Б1_2,False,False,55.5011391,36.01542689999999,"улица Красных Партизан, Можайск, Можайский городской округ, Московская область, ЦФО, 143200, РФ",Можайский городской округ, 143200,False,55515.0,32,30.01818710614741,1,15,2.0424285714285717,28.072142857142854,8,13,17,0,,9,63.43722548463703,6.0,11.0,1.0,,False
11480,141170.0,2017.0, ул. Маршала Красовского,"ул. Маршала Красовского, дом 4",ОПС Б1_2,False,False,55.8436684,38.19496779999999,"улица Маршала Красовского, Монино, городской округ Щёлково, Московская область, ЦФО, 141171, РФ",городской округ Щёлково, 141171,False,,0,,0,0,0.058,0.2422857142857143,0,0,0,0,,1,599.41541656253,6.0,11.0,1.0,,False
10940,,2017.0, Преображенская пл.,"Преображенская пл., 8 1 Этаж",КЦ,False,False,55.795656799999996,37.7138284,"Преображенская площадь, Преображенское, район Преображенское, Восточный административный округ, Москва, ЦФО, 107061, РФ",Преображенское, 107061,False,188169.0,51,22.43775578861629,7,15,7.648714285714287,139.20385714285715,10,2,9,1,210.60251534541345,19,90.5048831987793,6.0,11.0,1.0,,True
13434,,2017.0, пер. Краснопрудный,"пер. Краснопрудный, дом 7",other,False,False,55.77685205,37.66126778590571,"Многофункциональный комплекс  Краснопрудный, Красносельский район, Центральный административный округ, Москва, ЦФО, РФ",Центральный административный округ, ЦФО,True,227892.0,20,233.67863152016682,10,20,0.3862857142857143,49.442,19,4,14,2,594.8702148457102,13,243.5009559053996,6.0,11.0,1.0,,True
13426,,2017.0, прт Вернадского,"прт Вернадского, дом 18",other,False,False,55.676825699999995,37.5002093,"Проспект Вернадского, Москва, Западный административный округ, Москва, ЦФО, 119415, РФ",Западный административный округ, 119415,False,227892.0,18,152.18941253155828,5,14,0.8768571428571429,84.93014285714284,2,0,7,1,357.0753206041269,14,190.54563993956344,5.0,9.0,0.0,['пн.—пт.: 10:00—19:00'],True
13430,,2017.0, ул. Вагоноремонтная,"ул. Вагоноремонтная, дом 23",other,False,False,55.89843470000001,37.5342011,"Вагоноремонтная улица, Дмитровский, Дмитровский район, Северный административный округ, Москва, ЦФО, 127411, РФ",Дмитровский, 127411,False,134823.0,7,227.2348233849472,0,3,0.11371428571428573,18.79642857142857,1,0,7,0,,2,542.3940971743589,6.0,11.0,1.0,,True
13432,129226.0,2017.0, ул. Докукина,"ул. Докукина, дом 16",other,False,False,55.83936479999999,37.6520689,"улица Докукина, Ростокино, район Ростокино, Северо-Восточный административный округ, Москва, ЦФО, 127490, РФ",Ростокино, 127490,False,181534.0,4,41.75104695731154,1,3,1.2834285714285714,22.164285714285718,0,0,7,0,,6,136.2160072228919,6.0,11.0,1.0,,True
13428,,2017.0, ул. Дубининская,"ул. Дубининская, дом 7",other,False,False,55.722678099999996,37.6361365,"Дубининская улица, район Замоскворечье, Центральный административный округ, Москва, ЦФО, 115280, РФ",Центральный административный округ, 115280,True,227892.0,34,37.669938698877495,16,15,1.9764285714285716,103.635,23,4,23,2,93.04446966272872,17,94.86715571385494,5.0,9.0,0.0,['пн.—пт.: 09:00—18:00'],True
26166,,2018.0, ул. Кожевническая,"ул. Кожевническая, д. 6",ОПС Б1,False,False,55.7305679,37.641926700000006,"Кожевническая улица, район Замоскворечье, Центральный административный округ, Москва, ЦФО, 115280, РФ",Центральный административный округ, 115280,True,227892.0,30,53.8814238990588,13,9,6.346857142857143,90.80657142857143,17,3,16,2,320.926760020715,19,18.034396975514287,6.0,12.0,1.0,['пн.—пт.: 09:00—21:00 сб.: 10:00—17:00'],True
21486,,2018.0, ул. Кожевническая,"ул. Кожевническая, дом 7, к.1",other,False,False,55.7305679,37.641926700000006,"Кожевническая улица, район Замоскворечье, Центральный административный округ, Москва, ЦФО, 115280, РФ",Центральный административный округ, 115280,True,227892.0,22,69.44710521869757,14,9,3.980571428571429,90.14214285714287,11,4,12,2,447.7077082483055,20,94.71733986408688,6.0,12.0,1.0,['пн.—пт.: 09:00—21:00 сб.: 10:00—17:00'],True
13433,,2017.0, ул. Краснопрудная,"ул. Краснопрудная, дом 3/5",other,False,False,55.7788289,37.657035799999996,"Москва-Ярославская, Краснопрудная улица, Красносельский район, Центральный административный округ, Москва, ЦФО, 107140, РФ",Красносельский, 107140,True,280130.0,15,142.88852565580626,6,14,4.891857142857143,81.76142857142857,19,5,9,2,446.428364573672,20,135.23738853820052,5.0,9.0,0.0,['пн.—пт.: 10:00—19:00'],True
13431,,2017.0, ул. Перовская,"ул. Перовская, дом 68",other,False,False,55.74489079999999,37.7989776,"Перовская улица, Новогиреево, район Новогиреево, Восточный административный округ, Москва, ЦФО, 4А, РФ",Новогиреево, 4А,False,137743.0,57,88.0533769547698,0,12,1.1327142857142858,57.973,5,1,2,0,,15,137.43707930738822,5.0,9.0,0.0,['пн.—пт.: 09:00—18:00'],True
10331,,2017.0, ул. Тверская,"ул. Тверская, дом 7",other,False,False,55.7643875,37.60643870000001,"Альфа-Банк, 16 с1, Тверская улица, Сущёво, Тверской район, Центральный административный округ, Москва, ЦФО, 125009, РФ",Тверская улица, 125009,False,227892.0,17,144.429497354065,7,11,5.852857142857142,121.24942857142857,24,82,17,2,329.2533592236162,9,103.05264925561606,5.0,10.0,0.0,"пн.—пт.: 09:00—18:00, пн.—пт.: 10:00—19:00 перерыв: 12:00—13:00",True
11149,115127.0,2016.0, ш. Варшавское,"ш. Варшавское, дом 37",other,False,False,55.8223542,37.9699224,"Варшавское, 16/5, улица Свердлова, Балашиха-2, Балашиха, городской округ Балашиха, Московская область, ЦФО, 142200, РФ",улица Свердлова, 142200,False,227892.0,13,44.77611940298507,7,3,2.926285714285714,80.47485714285716,0,1,7,1,385.00881654464547,8,130.30885052381706,6.0,12.0,1.0,"пн.: 11:00—20:00 вт.—пт.: 09:00—20:00 сб.: 09:00—18:00, пн.—пт.: 10:00—19:00, пн.: 11:00—20:00 перерыв: 13:00—14:00 вт.—пт.: 09:00—20:00 сб.: 09:00—18:00, пн.: 11:00—20:00 вт.—пт.: 09:00—20:00 сб.: 09:00—18:00, перерыв: 13:00—14:00, пн.—пт.: 09:00—21:00 сб.: 10:00—17:00",True
26734,,2018.0, ул. Кировоградская,"ул. Кировоградская, дом 13а",other,False,False,55.60354690000001,37.5999653,"Кировоградская улица, район Чертаново Южное, Южный административный округ, Москва, ЦФО, 117534, РФ",Южный административный округ, 117534,False,227892.0,36,139.31258854388875,5,22,0.34,136.6932857142857,10,0,6,1,179.21638295095073,17,196.7164745317337,6.0,11.0,1.0,"['пн.: 11:00—20:00, перерыв: 13:00—14:00 вт.—пт.: 09:00—20:00 сб.: 09:00—18:00, перерыв: 13:00—14:00']",True
3101,,2014.0, Вавилова ул.,"Вавилова ул., д. 6",КЦ,False,False,55.686164899999994,37.554914000000004,"улица Вавилова, Гагаринский, Гагаринский район, Юго-Западный административный округ, Москва, ЦФО, 117292, РФ",Гагаринский, 117292,False,217230.0,21,86.6475437430973,11,19,2.585142857142857,166.67771428571427,12,0,4,2,188.92392044587865,13,77.50423065652072,6.0,11.0,1.0,,True
21491,,2018.0, Варшавское ш.,"Варшавское ш., дом 78/2",КЦ,False,False,55.8223542,37.9699224,"Варшавское, 16/5, улица Свердлова, Балашиха-2, Балашиха, городской округ Балашиха, Московская область, ЦФО, 142200, РФ",улица Свердлова, 142200,False,227892.0,23,118.24296585959308,5,16,6.5315714285714295,109.307,2,1,13,1,103.6749551451478,16,74.61567080211285,6.0,11.0,1.0,,True
1340,,2013.0, Митинская ул.,"Митинская ул., 40",КЦ,False,False,55.846281499999996,37.3616404,"Митинская улица, Митино, район Митино, Северо-Западный административный округ, Москва, ЦФО, 123430, РФ",Митино, 123430,False,141923.0,29,42.96071034216196,5,22,3.2741428571428566,92.802,4,1,6,1,304.8815728216478,11,90.17198487757143,6.0,11.0,1.0,,True
3232,,2014.0, Ореховый бр,"Ореховый бр, д.13",КЦ,False,False,55.6133951,37.694556299999995,"Орехово, Шипиловский проезд, Орехово-Борисово, Орехово-Борисово Северное, район Орехово-Борисово Северное, Южный административный округ, Москва, ЦФО, 115569, РФ",Орехово-Борисово, 115569,False,227892.0,27,55.092623359079845,6,16,5.770857142857143,140.40914285714285,4,1,8,1,123.44375414180685,22,36.414545966435384,6.0,11.0,1.0,,True
1341,,2013.0, Преображенская пл.,"Преображенская пл., 8",КЦ,False,False,55.795656799999996,37.7138284,"Преображенская площадь, Преображенское, район Преображенское, Восточный административный округ, Москва, ЦФО, 107061, РФ",Преображенское, 107061,False,188169.0,51,22.43775578861629,7,15,7.648714285714287,139.20385714285715,10,2,9,1,210.60251534541345,19,90.5048831987793,6.0,11.0,1.0,,True
23230,,2018.0, прт Нахимовский ,"прт Нахимовский , дом 42",КЦ,False,False,55.6699782,37.585139399999996,"Нахимовский проспект, район Черёмушки, Юго-Западный административный округ, Москва, ЦФО, 113786, РФ",Юго-Западный административный округ, 113786,False,227892.0,27,201.44969140918843,3,15,5.7860000000000005,126.96742857142857,12,1,10,1,112.70880476439727,14,99.59821266091268,6.0,12.0,1.0,['пн.—пт.: 09:00—21:00 сб.: 10:00—17:00'],True
4190,,2014.0, ул. 2я Владимирская,"ул. 2я Владимирская, д. 36",КЦ,False,False,55.746224100000006,37.7819675,"1-я Владимирская улица, Перово, район Перово, Восточный административный округ, Москва, ЦФО, 111141, РФ",Перово, 111141,False,142918.0,85,87.98694186111277,7,15,5.849285714285713,68.85985714285714,5,2,4,1,209.4091551308527,15,35.08256499565122,6.0,11.0,1.0,,True
24945,,2018.0, ул. Б. Дорогомиловская,"ул. Б. Дорогомиловская, дом 8",КЦ,False,False,55.745427600000006,37.5705935,"Большая Дорогомиловская улица, Квартал №538, Плющиха, Москва, Западный административный округ, Москва, ЦФО, 121248, РФ",Плющиха, 121248,False,227892.0,21,204.77698968528355,8,15,2.095428571428572,99.09557142857143,14,3,7,3,222.9433116398548,16,144.71070995097594,6.0,11.0,1.0,,True
13175,,2017.0, ул. Земляной Вал,"ул. Земляной Вал, дом 21/2, стр.1",КЦ,False,False,55.751783999999994,37.65587070000001,"улица Земляной Вал, Швивая горка, Таганский район, Центральный административный округ, Москва, ЦФО, 109004, РФ",Таганский, 109004,True,266064.0,30,49.19716335477466,19,13,9.653714285714283,99.37571428571428,29,8,23,1,276.4106974978452,9,72.69131738439356,6.0,12.0,1.0,"пн.—пт.: 10:00—19:00, пн.—пт.: 09:00—21:00 сб.: 10:00—17:00",True
19233,,2018.0, ул. Кожевническая,"ул. Кожевническая, дом 1, стр. 1",КЦ,False,False,55.7305679,37.641926700000006,"Кожевническая улица, район Замоскворечье, Центральный административный округ, Москва, ЦФО, 115280, РФ",Центральный административный округ, 115280,True,227892.0,30,95.45239973325064,16,10,8.201285714285714,113.73014285714285,20,3,17,2,234.39251902297627,20,79.18188271463305,6.0,12.0,1.0,['пн.—пт.: 09:00—21:00 сб.: 10:00—17:00'],True
24946,,2018.0, ул. Народного Ополчения,"ул. Народного Ополчения, дом 45",КЦ,False,False,55.7834549,37.4815964,"улица Народного Ополчения, район Хорошёво-Мнёвники, Северо-Западный административный округ, Москва, ЦФО, 123154, РФ",Северо-Западный административный округ, 123154,False,227892.0,5,289.8838307508866,6,15,6.4752857142857145,118.05471428571428,5,2,6,1,147.61224212576482,20,28.16113770763165,6.0,12.0,1.0,"пн., вт.: 11:00—20:00 ср.—пт.: 09:00—20:00 сб.: 09:00—18:00, пн.—сб.: 09:00—21:00",True
5093,,2014.0, ул. Сергия Радонежского,"ул. Сергия Радонежского, д. 6",КЦ,False,False,55.746752,37.670626399999996,"улица Сергия Радонежского, Швивая горка, Таганский район, Центральный административный округ, Москва, ЦФО, 105120, РФ",Таганский, 105120,True,266064.0,24,172.28949821813725,12,14,7.464714285714287,104.90828571428571,10,7,9,2,484.8501202617605,26,79.89258214976759,6.0,12.0,1.0,"пн.—пт.: 09:00—18:00 перерыв: 13:00—14:00, пн.—пт.: 09:00—21:00 сб.: 10:00—17:00",True
1327,,2013.0, ул. Снежная,"ул. Снежная, 16, корп. 1",КЦ,False,False,55.8504728,37.643794,"Снежная улица, Свиблово, район Свиблово, Северо-Восточный административный округ, Москва, ЦФО, 129323, РФ",Свиблово, 129323,False,166074.0,43,31.05768962191763,0,6,3.745428571428572,61.44714285714286,1,0,0,0,,12,94.98449299520789,7.0,12.0,2.0,['пн.—вс.: 09:00—21:00'],True
27039,,2019.0, ул. Совхозная,"ул. Совхозная, дом 39",КЦ,False,False,55.9027551,37.4908864,"ул. Совхозная, Лихачёвское шоссе, Левобережный, Химки, городской округ Химки, Московская область, ЦФО, 141406, РФ",Левобережный, 141406,False,156453.0,29,61.74217549812853,6,14,5.890857142857143,76.05457142857144,3,0,4,1,241.16026991453805,15,50.39938508926282,6.0,11.0,1.0,['пн.: 11:00—20:00 вт.—пт.: 09:00—20:00 сб.: 09:00—18:00'],True
23771,,2018.0, ул. Ярцевская,"ул. Ярцевская, дом 24",КЦ,False,False,55.7358886,37.4085495,"Ярцевская улица, Кунцево, Москва, Западный административный округ, Москва, ЦФО, 121451, РФ",Москва, 121451,False,227892.0,19,104.6613522910889,2,15,7.646285714285713,101.91171428571428,10,1,1,1,275.3417852155319,18,33.51568891475465,6.0,12.0,1.0,"пн.—пт.: 09:00—21:00 сб.: 10:00—17:00, пн.—пт.: 11:00—20:00",True
26378,,2018.0, ш. Дмитровское,"ш. Дмитровское, дом 13А",КЦ,False,False,56.5202402,38.126147499999995,"Дмитровское, Сергиево-Посадский район, Московская область, ЦФО, РФ",Московская область, ЦФО,False,227892.0,61,42.175734778939685,4,27,2.7831428571428574,86.52828571428572,7,1,3,1,140.36398916467652,14,96.45648689955144,6.0,11.0,1.0,"пн.: 11:00—20:00 вт.—пт.: 09:00—20:00 сб.: 09:00—18:00  перерыв: 13:00—14:00, пн.: 11:00—20:00 вт.—пт.: 09:00—20:00 сб.: 09:00—18:00, перерыв: 13:00—14:00, пн.: 11:00—20:00 вт.—пт.: 09:00—20:00 сб.: 09:00—18:00, перерыв: 13:00—14:00",True
23153,111033.0,2018.0,  пл. Красноказарменная,"пл. Красноказарменная, дом 1",ОПС Б1_2,False,False,55.75392239999999,37.709336,"Красноказарменная улица, Квартал Свобода, Андроново, район Лефортово, Юго-Восточный административный округ, Москва, ЦФО, 111024, РФ",Андроново, 111024,False,227892.0,21,38.00845247237864,2,8,2.3115714285714284,104.22785714285715,11,6,9,0,,11,149.64873104837378,6.0,11.0,1.0,,True
15661,127273.0,2017.0, аллея Березовая,"аллея Березовая, дом 9, стр. 2",ОПС Б1_2,False,False,55.569910899999996,37.12638010000001,"Березовая аллея, Красные Горки, Новомосковский административный округ, Москва, ЦФО, 143391, РФ",Новомосковский административный округ, 143391,False,227892.0,34,53.0323522520593,0,14,4.105428571428572,45.482285714285716,3,2,3,0,,11,74.64178955253723,6.0,11.0,1.0,['пн.: 11:00—20:00 вт.—пт.: 09:00—20:00 сб.: 09:00—18:00'],True
7941,127474.0,2016.0, бр Бескудниковский,"бр Бескудниковский, дом 12",ОПС Б1_2,False,False,55.8680301,37.550802000000004,"Москва, 24 с1, Селигерская улица, Бескудниково, Бескудниковский район, Северный административный округ, Москва, ЦФО, 127247, РФ",Селигерская улица, 127247,False,227892.0,24,68.75398690317027,5,11,4.9157142857142855,59.484285714285704,3,2,2,0,,13,67.34635326972224,6.0,11.0,1.0,,True
8430,127486.0,2016.0, бр Бескудниковский,"бр Бескудниковский, дом 55, к.1",ОПС Б1_2,False,False,55.8680301,37.550802000000004,"Москва, 24 с1, Селигерская улица, Бескудниково, Бескудниковский район, Северный административный округ, Москва, ЦФО, 127247, РФ",Селигерская улица, 127247,False,227892.0,33,55.76579609632659,2,12,2.3497142857142856,48.275714285714294,5,3,1,0,,9,117.94114469110953,6.0,11.0,1.0,,True
12778,109125.0,2017.0, бр Волжский,"бр Волжский, дом 16, к.1",ОПС Б1_2,False,False,55.69994690000001,37.75232370000001,"Волжский, 113А к1, Волжский бульвар, Кузьминки, район Кузьминки, Юго-Восточный административный округ, Москва, ЦФО, 109462, РФ",Волжский бульвар, 109462,False,227892.0,19,111.20404642853892,5,10,1.8324285714285715,38.283142857142856,7,1,5,0,,8,43.270713475594704,6.0,11.0,1.0,,True
12749,109145.0,2017.0, бр Жулебинский,"бр Жулебинский, дом 1",ОПС Б1,False,False,55.69622320000001,37.8529035,"Жулебинский бульвар, 2-й микрорайон Жулебино, Жулебино, район Выхино-Жулебино, Юго-Восточный административный округ, Москва, ЦФО, 109153, РФ",Жулебино, 109153,False,132965.0,40,67.01891421828945,2,8,3.0347142857142857,53.514428571428574,4,0,4,0,,0,,6.0,11.0,1.0,,True
11470,109156.0,2017.0, бр Жулебинский,"бр Жулебинский, дом 28, к.1",ОПС Б1,False,False,55.69622320000001,37.8529035,"Жулебинский бульвар, 2-й микрорайон Жулебино, Жулебино, район Выхино-Жулебино, Юго-Восточный административный округ, Москва, ЦФО, 109153, РФ",Жулебино, 109153,False,132965.0,76,20.20445726967296,4,22,2.211,42.96714285714286,7,2,4,0,,19,291.0151152126732,6.0,11.0,1.0,,True
8434,107258.0,2016.0, бр Маршала Рокоссовского,"бр Маршала Рокоссовского, дом 33/12",ОПС Б1_2,False,False,55.8096594,37.7252083,"бульвар Маршала Рокоссовского, Черкизово, район Преображенское, Восточный административный округ, Москва, ЦФО, 107370, РФ",Преображенское, 107370,False,188169.0,55,98.4678798808701,0,25,4.609571428571429,64.64642857142857,3,0,3,0,,16,151.71845517716525,6.0,11.0,1.0,,True
10166,107370.0,2017.0, бр Маршала Рокоссовского,"бр Маршала Рокоссовского, дом 7, к.4",ОПС Б1,False,False,55.8096594,37.7252083,"бульвар Маршала Рокоссовского, Черкизово, район Преображенское, Восточный административный округ, Москва, ЦФО, 107370, РФ",Преображенское, 107370,False,188169.0,57,64.92537313432835,1,31,2.5707142857142857,47.53,4,0,5,0,,9,373.6608225869791,6.0,11.0,1.0,,True
12766,117186.0,2017.0, бр Нагорный,"бр Нагорный, дом 10",ОПС Б1_2,False,False,55.6703681,37.6163609,"Нагорный, Москва, Южный административный округ, Москва, ЦФО, 115230, РФ",Южный административный округ, 115230,False,227892.0,17,155.14492825627414,2,18,3.1028571428571428,52.49914285714286,2,0,2,0,,6,74.5708745178257,6.0,11.0,1.0,,True
12765,109144.0,2017.0, бр Новочеркасский,"бр Новочеркасский, дом 44",ОПС Б1_2,False,False,55.64646389999999,37.7271605,"Новочеркасский бульвар, Марьино, район Марьино, Юго-Восточный административный округ, Москва, ЦФО, 109369, РФ",Марьино, 109369,False,135354.0,25,184.4250154456297,4,15,3.2758571428571432,60.712428571428575,7,2,4,0,,0,,6.0,11.0,1.0,,True
9683,109651.0,2017.0, бр Новочеркасский,"бр Новочеркасский, дом 5 стр.2",ОПС Б1_2,False,False,55.64646389999999,37.7271605,"Новочеркасский бульвар, Марьино, район Марьино, Юго-Восточный административный округ, Москва, ЦФО, 109369, РФ",Марьино, 109369,False,135354.0,24,84.12007033410063,2,9,2.5057142857142862,45.009571428571434,5,0,3,0,,15,137.8315985745098,6.0,11.0,1.0,,True
16936,121609.0,2017.0, бр Осенний,"бр Осенний, дом 11",ОПС Б1_2,False,False,55.7536549,37.4090276,"Осенний бульвар, Крылатское, район Крылатское, Западный административный округ, Москва, ЦФО, 121609, РФ",Крылатское, 121609,False,189894.0,30,99.27897782379051,3,11,3.3989999999999996,71.44171428571428,2,0,3,1,264.2697373833804,6,76.28019306973515,6.0,11.0,1.0,,True
11673,117452.0,2017.0, бр Симферопольский,"бр Симферопольский, дом 22 к.1",ОПС Б1_2,False,False,55.662068299999994,37.6120492,"Симферопольский бульвар, Нагорный, Нагорный район, Южный административный округ, Москва, ЦФО, 117638, РФ",Нагорный, 117638,False,167467.0,41,78.13044367312078,3,23,3.3072857142857144,60.308714285714295,6,0,7,0,,15,147.04522757640322,6.0,11.0,1.0,,True
16681,121609.0,, бр Сиреневый,"бр Сиреневый, дом 11",ОПС Б1_2,False,False,55.9290838,37.984445799999996,"Сиреневый, Щёлково, городской округ Щёлково, Московская область, ЦФО, 141100, РФ",городской округ Щёлково, 141100,False,227892.0,94,74.64178955253723,0,18,1.1062857142857143,61.445,6,2,6,0,,11,163.7885449542526,6.0,11.0,1.0,,True
14080,105425.0,2017.0, бр Сиреневый,"бр Сиреневый, дом 15А",ОПС Б1_2,False,False,55.9290838,37.984445799999996,"Сиреневый, Щёлково, городской округ Щёлково, Московская область, ЦФО, 141100, РФ",городской округ Щёлково, 141100,False,227892.0,75,18.879269612945553,0,18,3.862428571428572,76.3912857142857,12,2,8,0,,12,168.45516949650371,6.0,11.0,1.0,,True
8823,105484.0,2016.0, бр Сиреневый,"бр Сиреневый, дом 65, к.1",ОПС Б1_2,False,False,55.9290838,37.984445799999996,"Сиреневый, Щёлково, городской округ Щёлково, Московская область, ЦФО, 141100, РФ",городской округ Щёлково, 141100,False,227892.0,90,38.69818555959454,1,14,1.5271428571428571,69.02528571428572,7,2,7,0,,13,197.5357769084697,6.0,11.0,1.0,,True
9674,121352.0,2016.0, бр Славянский,"бр Славянский, дом 5, к.1",ОПС Б1,False,False,55.78113570000001,38.6521041,"Славянский, Павловская улица, Париж, Павловский Посад, городской округ Павловский Посад, Московская область, ЦФО, 142500, РФ",Париж, 142500,False,227892.0,27,36.13050279674688,1,14,5.223571428571429,117.632,2,0,0,1,322.9101976826243,15,119.01288888643957,6.0,11.0,1.0,,True
13231,107045.0,, бр Сретенский,"бр Сретенский, дом 5",ОПС Б1,False,False,55.7647878,37.6310718,"Сретенский переулок, Мещанский район, Центральный административный округ, Москва, ЦФО, 101000, РФ",Центральный административный округ, 101000,True,227892.0,8,244.26708081956028,7,11,7.883999999999999,148.63085714285714,18,45,29,3,309.29212289791803,5,164.3316794437104,6.0,11.0,1.0,,True
12755,109384.0,2017.0, бр Тихорецкий,"бр Тихорецкий, дом 2, к.1",ОПС Б1,False,False,55.677958600000004,37.7777006,"Тихорецкий бульвар, Люблино, район Люблино, Юго-Восточный административный округ, Москва, ЦФО, 109387, РФ",Люблино, 109387,False,136747.0,21,45.82113860599628,1,6,2.8541428571428566,48.50442857142857,5,0,3,0,,0,,6.0,11.0,1.0,,True
7592,125364.0,2016.0, бр Химкинский,"бр Химкинский, дом 1",ОПС Б1_2,False,False,55.8507282,37.4524052,"Химкинский бульвар, район Южное Тушино, Северо-Западный административный округ, Москва, ЦФО, 125364, РФ",Северо-Западный административный округ, 125364,False,227892.0,25,65.76062492555286,1,14,4.977,65.05871428571429,5,1,3,0,,9,88.78088194474171,6.0,11.0,1.0,,True
9666,125459.0,2017.0, бр Яна Райниса,"бр Яна Райниса, дом 12",ОПС Б1_2,False,False,55.8490589,37.41899960000001,"бульвар Яна Райниса, Братцево, район Южное Тушино, Северо-Западный административный округ, Москва, ЦФО, 125459, РФ",Южное Тушино, 125459,False,155591.0,19,117.8277624308692,1,22,0.8027142857142857,80.60257142857142,2,0,3,0,,11,188.98286798797542,6.0,11.0,1.0,,True
9356,125373.0,2016.0, бр Яна Райниса,"бр Яна Райниса, дом 22, к.1",ОПС Б1_2,False,False,55.8490589,37.41899960000001,"бульвар Яна Райниса, Братцево, район Южное Тушино, Северо-Западный административный округ, Москва, ЦФО, 125459, РФ",Южное Тушино, 125459,False,155591.0,35,86.6475437430973,0,18,0.7871428571428571,46.58042857142856,3,0,0,0,,14,95.83089174622091,6.0,11.0,1.0,,True
16561,108805.0,, д. Яковлевское,"д. Яковлевское, дом 24",ОПС Б1,False,False,55.464150399999994,36.9402357,"Яковлевское, Троицкий административный округ, Москва, ЦФО, РФ",Москва, ЦФО,False,227892.0,14,210.08887573955963,0,4,0.9341428571428572,5.9945714285714295,3,1,4,0,,2,422.4810034337866,6.0,11.0,1.0,,True
23053,108801.0,2018.0, Коммунарка ул. Липовый парк,"Коммунарка ул. Липовый парк, дом 8, к.2",ОПС Б1_2,False,False,55.569169499999994,37.4900485,"улица Липовый парк, Столбово, поселение Сосенское, Новомосковский административный округ, Москва, ЦФО, 142770, РФ",поселение Сосенское, 142770,False,227892.0,0,,0,0,0.0,0.1868571428571429,0,0,0,0,,8,263.0689635291244,6.0,11.0,1.0,,True
14941,117648.0,, мкр Чертаново Северное,"мкр Чертаново Северное, дом 2, к.202",ОПС Б1,False,False,55.6340818,37.5881354,"Чертаново Северное, Битцевский проезд, микрорайон Северное Чертаново, район Чертаново Северное, Южный административный округ, Москва, ЦФО, 117648, РФ",микро Северное Чертаново, 117648,False,227892.0,36,222.02715380847312,4,22,1.8575714285714289,64.88442857142857,5,4,2,1,511.1504502613745,15,192.249292844584,6.0,11.0,1.0,,True
16488,123104.0,2017.0, пер. Богословский,"пер. Богословский, дом 8/15,стр.1",ОПС Б1_2,False,False,55.7620024,37.6008523,"Богословский переулок, Старое Ваганьково, Москва, Центральный административный округ, Москва, ЦФО, 123104, РФ",Москва, 123104,False,227892.0,7,314.26772246152467,9,13,5.8955714285714285,108.21628571428572,46,32,19,1,484.6324046220111,8,159.49386698739832,6.0,11.0,1.0,,True
14943,107031.0,, пер. Варсонофьевский,"пер. Варсонофьевский, дом 4, стр. 1",ОПС Б1_2,False,False,55.7632926,37.6262393,"Варсонофьевский переулок, Мещанский район, Центральный административный округ, Москва, ЦФО, 107031, РФ",Центральный административный округ, 107031,True,227892.0,10,128.88213102648584,15,12,3.7039999999999997,76.92628571428571,26,83,18,1,228.04216741222749,5,371.5556154959165,6.0,11.0,1.0,,True
10165,125368.0,2016.0, пер. Митинский 3й,"пер. Митинский 3й, дом 1",ОПС Б1_2,False,False,55.8450111,37.377984999999995,"1-й Митинский переулок, Митино, район Митино, Северо-Западный административный округ, Москва, ЦФО, 123627, РФ",Митино, 123627,False,141923.0,27,60.07346805223315,4,21,1.582142857142857,44.955285714285715,6,0,4,0,,10,295.4366301017548,6.0,11.0,1.0,,True
7910,105037.0,2016.0, пл. Измайловская,"пл. Измайловская, дом 11",ОПС Б1_2,False,False,55.7877328,37.781602299999996,"Измайловская, Измайловский проспект, район Измайлово, Восточный административный округ, Москва, ЦФО, 105043, РФ",Измайлово, 105043,False,154994.0,91,21.212940900823728,2,25,2.3297142857142856,47.642571428571436,7,2,5,0,,16,139.79147822638618,6.0,11.0,1.0,['пн.: 11:00—20:00 вт.—пт.: 09:00—20:00 сб.: 09:00—18:00'],True
7562,123242.0,2016.0, пл. Кудринская,"пл. Кудринская, дом 1",ОПС Б1,False,False,55.759269700000004,37.584721,"Кудринская площадь, Кудрино, Москва, Центральный административный округ, Москва, ЦФО, 123242, РФ",Москва, 123242,False,227892.0,9,137.0251678934271,9,5,2.774857142857144,133.81642857142856,33,16,23,2,187.967876184114,20,74.72381761915805,5.0,9.0,0.0,['пн.—пт.: 09:00—18:00'],True
12781,121293.0,2017.0, пл. Победы,"пл. Победы, дом 1, к.Б",ОПС Б1_2,False,False,55.736622499999996,37.5203737,"площадь Победы, Дорогомилово, район Дорогомилово, Западный административный округ, Москва, ЦФО, 121170, РФ",Дорогомилово, 121170,False,254054.0,4,111.3341799327435,7,16,3.7155714285714287,120.359,8,4,7,2,189.0359050594581,11,68.75803685380572,5.0,11.0,0.0,"['пн., чт., пт.: 09:00—20:00 вт.: 11:00—20:00 ср.: 09:00—18:00']",True
7943,121099.0,2016.0, пл. Смоленская,"пл. Смоленская, дом 13 /21",ОПС Б1_2,False,False,55.748863,37.5826924,"Смоленская, Смоленская площадь, район Арбат, Центральный административный округ, Москва, ЦФО, 121099, РФ",Арбат, 121099,True,325513.0,8,202.46998958061718,11,18,6.042857142857143,147.72114285714287,14,7,22,2,96.29468582510404,7,94.693817832343,6.0,11.0,1.0,"['пн.: 09:00—18:00 вт.: 09:00—20:00 ср.: 11:00—20:00 чт., пт.: 09:00—20:00 сб.: 09:00—18:00']",True
13238,125371.0,2017.0, прд 2й Тушинский,"прд 2й Тушинский, дом 10",ОПС Б1_2,False,False,55.83418520000001,37.421837599999996,"2-й Тушинский проезд, Тушино, район Покровское-Стрешнево, Северо-Западный административный округ, Москва, ЦФО, 125371, РФ",Покровское-Стрешнево, 125371,False,169325.0,6,314.75909878046815,1,7,0.9738571428571428,24.72742857142857,3,0,8,0,,10,250.3873141434747,6.0,11.0,1.0,,True
19524,121087.0,2018.0, прд Багратионовский,"прд Багратионовский, дом 1, к.1",ОПС Б1_2,False,False,55.7465424,37.51423370000001,"Багратионовский проезд, Фили, район Филёвский Парк, Западный административный округ, Москва, ЦФО, 121087, РФ",Филёвский Парк, 121087,False,227892.0,3,119.18356705259251,0,3,5.852285714285713,65.17214285714286,2,0,5,1,219.13502776158242,6,146.98272243713646,6.0,11.0,1.0,,True
23611,115563.0,2018.0, прд Борисовский,"прд Борисовский, дом 11, к.1, стр. 3",ОПС Б1_2,False,False,55.6261547,37.722664200000004,"Борисовский проезд, Орехово-Борисово, Орехово-Борисово Северное, район Орехово-Борисово Северное, Южный административный округ, Москва, ЦФО, 115563, РФ",Орехово-Борисово Северное, 115563,False,138539.0,16,96.56900964810212,2,19,1.0444285714285717,38.98914285714286,3,0,5,0,,6,136.57531987718156,6.0,11.0,1.0,,True
8825,119619.0,2017.0, прд Боровский,"прд Боровский, дом 14",ОПС Б1_2,False,False,55.6548821,37.390800299999995,"Боровский проезд, Солнцево, район Солнцево, Западный административный округ, Москва, ЦФО, 119619, РФ",Солнцево, 119619,False,135686.0,7,258.53658792874785,1,4,1.7437142857142858,46.339,0,0,1,0,,14,63.380136142049416,6.0,11.0,1.0,,True
9358,125445.0,2016.0, прд Валдайский,"прд Валдайский, дом 8 стр.2",ОПС Б1_2,False,False,55.8705995,37.4656593,"Валдайский проезд, Микрорайон №1, Левобережный, район Левобережный, Северный административный округ, Москва, ЦФО, 125445, РФ",Левобережный, 125445,False,156453.0,10,243.7227059733969,2,7,2.209714285714285,41.26957142857143,0,1,5,1,521.0884687341648,12,317.3897354237727,6.0,11.0,1.0,,True
16768,117403.0,2017.0, прд Востряковский,"прд Востряковский, дом 11, к. 1, с. 2",ОПС Б1_2,False,False,55.5808451,37.6421346,"Востряковский проезд, Бирюлёво Западное, район Бирюлёво Западное, Южный административный округ, Москва, ЦФО, 117403, РФ",Бирюлёво Западное, 117403,False,227892.0,32,36.93841394258085,1,15,2.8815714285714287,35.88171428571429,3,2,3,0,,10,135.5520547448684,6.0,11.0,1.0,,True
14096,115547.0,2017.0, прд Загорьевский,"прд Загорьевский, дом 9, к.1",ОПС Б1_2,False,False,55.57700550000001,37.678464700000006,"Загорьевский проезд, Бирюлёво, район Бирюлёво Восточное, Южный административный округ, Москва, ЦФО, 115547, РФ",Бирюлёво Восточное, 115547,False,227892.0,12,110.60899888745615,0,5,1.3090000000000002,34.02914285714286,2,0,1,0,,9,67.76267340090678,6.0,11.0,1.0,,True
8413,115682.0,2016.0, прд Задонский,"прд Задонский, дом 36, к.2",ОПС Б1,False,False,55.6237452,37.755222499999995,"Задонский проезд, Зябликово, район Зябликово, Южный административный округ, Москва, ЦФО, 115612, РФ",Зябликово, 115612,False,132965.0,27,18.716322692514108,0,15,0.7284285714285714,35.47057142857142,5,0,7,0,,9,187.63574576763088,6.0,11.0,1.0,,True
14948,115446.0,2017.0, прд Коломенский,"прд Коломенский, дом 6, к.1",ОПС Б1_2,False,False,55.66593295,37.6565430956978,"Коломенский, вл16А, Коломенский проезд, Нагатино-Садовники, район Нагатино-Садовники, Южный административный округ, Москва, ЦФО, 109652, РФ",Коломенский проезд, 109652,False,227892.0,19,51.971598049194476,0,7,3.3274285714285714,68.08328571428571,4,1,4,0,,12,115.84483903917162,6.0,11.0,1.0,,True
9669,123592.0,2017.0, прд Неманский,"прд Неманский, дом 9",ОПС Б1_2,False,False,55.813138,37.3926533,"Неманский проезд, район Строгино, Северо-Западный административный округ, Москва, ЦФО, 123592, РФ",Северо-Западный административный округ, 123592,False,227892.0,13,28.36802658022121,6,1,4.624428571428571,69.24328571428572,4,0,1,0,,21,81.64397388552325,6.0,11.0,1.0,,True
12772,119435.0,2017.0, прд Новодевичий,"прд Новодевичий, дом 10",ОПС Б1_2,False,False,55.72604985,37.5557453148866,"Новодевичий монастырь, Лужнецкий проезд, Квартал №532, Лужники, район Хамовники, Центральный административный округ, Москва, ЦФО, 119048, РФ",Квартал №532, 119048,False,227892.0,21,34.33646886664878,2,7,4.211,50.501999999999995,12,3,8,0,,12,32.09822860836802,6.0,11.0,1.0,,True
14949,109507.0,2017.0, прд Ферганский,"прд Ферганский, дом 14, к.3",ОПС Б1,False,False,55.693613,37.817262400000004,"Ферганский проезд, Выхино, район Выхино-Жулебино, Юго-Восточный административный округ, Москва, ЦФО, 109507, РФ",Выхино-Жулебино, 109507,False,128188.0,18,292.420209580011,0,10,2.7891428571428567,63.682571428571435,1,2,1,0,,7,57.029770670277,6.0,11.0,1.0,,True
13239,115582.0,2017.0, прд Шипиловский,"прд Шипиловский, дом 59, к.2, стр. 2",ОПС Б1_2,False,False,55.61796379999999,37.69412020000001,"Шипиловский проезд, Орехово-Борисово Северное, район Орехово-Борисово Северное, Южный административный округ, Москва, ЦФО, 115569, РФ",Орехово-Борисово Северное, 115569,False,138539.0,8,357.1782434813124,0,17,1.7601428571428572,36.25742857142857,5,0,1,0,,9,117.35653000482714,6.0,11.0,1.0,,True
8422,115487.0,2016.0, прт Андропова,"прт Андропова, дом 38",ОПС Б1_2,False,False,55.656779,37.65332120000001,"проспект Андропова, Нагатино-Садовники, район Нагатино-Садовники, Южный административный округ, Москва, ЦФО, 115478, РФ",Нагатино-Садовники, 115478,False,159970.0,14,66.49752062670287,3,5,2.035857142857143,72.36385714285714,3,6,5,0,,8,262.70882707584974,6.0,11.0,1.0,"['пн.: 11:00—20:00, перерыв: 14:00—15:00 вт.—пт.: 09:00—20:00 сб.: 09:00—18:00, перерыв: 13:00—14:00']",True
11684,117639.0,2017.0, прт Балаклавский,"прт Балаклавский, дом 6 Б",ОПС Б1_2,False,False,55.6491971,37.565639399999995,"Балаклавский проспект, Зюзино, район Зюзино, Юго-Западный административный округ, Москва, ЦФО, 117246, РФ",Зюзино, 117246,False,167467.0,43,77.78754531022919,1,13,2.960857142857144,60.659,8,0,2,1,585.2235760751681,16,143.61164247325146,5.0,9.0,0.0,['пн.—пт.: 11:00—20:00'],True
11233,119311.0,2017.0, прт Вернадского,"прт Вернадского, дом 11 /19",ОПС Б1,False,False,55.676825699999995,37.5002093,"Проспект Вернадского, Москва, Западный административный округ, Москва, ЦФО, 119415, РФ",Западный административный округ, 119415,False,227892.0,12,138.8781709188432,1,13,9.119714285714286,114.42242857142857,6,1,6,0,,7,94.57611992117813,5.0,9.0,0.0,['пн.—пт.: 10:00—19:00'],True
14944,109316.0,2017.0, прт Волгоградский,"прт Волгоградский, дом 17",ОПС Б1,False,False,55.7231755,37.6940203,"Волгоградский проспект, Нижегородский, Нижегородский район, Юго-Восточный административный округ, Москва, ЦФО, 109029, РФ",Нижегородский, 109029,False,186775.0,24,59.64549612742712,1,17,6.23642857142857,114.35957142857143,10,1,7,0,,9,54.73767409221567,6.0,11.0,1.0,"пн.—пт.: 11:00—20:00 перерыв: 13:00—14:00, пн.: 11:00—20:00 вт.—пт.: 09:00—20:00 сб.: 09:00—18:00",True
11231,109443.0,2017.0, прт Волгоградский,"прт Волгоградский, дом 88",ОПС Б1_2,False,False,55.7231755,37.6940203,"Волгоградский проспект, Нижегородский, Нижегородский район, Юго-Восточный административный округ, Москва, ЦФО, 109029, РФ",Нижегородский, 109029,False,186775.0,41,103.20385586521887,6,22,7.142,108.51928571428572,9,0,6,1,243.3121950026834,18,84.89441504830225,6.0,11.0,1.0,"пн.—пт.: 11:00—20:00 перерыв: 13:00—14:00, пн.: 11:00—20:00 вт.—пт.: 09:00—20:00 сб.: 09:00—18:00",True
11290,111396.0,2017.0, прт Зеленый,"прт Зеленый, дом 66 к. 1",ОПС Б1_2,False,False,55.07738135,38.76068351052629,"ТК «Зеленый», 54Б, проспект Кирова, Коломна, Коломенский городской округ, Московская область, ЦФО, 140411, РФ",проспект Кирова, 140411,False,227892.0,82,66.96903657738011,5,29,3.046428571428572,50.45571428571429,7,3,7,1,459.01285889781855,21,70.34349101058497,6.0,11.0,1.0,['пн.: 11:00—20:00 вт.—пт.: 09:00—20:00 сб.: 09:00—18:00'],True
7925,121248.0,2016.0, прт Кутузовский,"прт Кутузовский, дом 2 /1,  к.1Б",ОПС Б1_2,False,False,55.75145620000001,37.565489357776606,"Рэдиссон Ройал, Москва, 2/1, Кутузовский проспект, район Дорогомилово, Западный административный округ, Москва, ЦФО, 121248, РФ",2/1, 121248,False,227892.0,12,139.74565573152628,2,6,2.518142857142857,97.18785714285713,20,4,4,0,,9,181.55352961793326,5.0,9.0,0.0,"пн.—пт.: 10:00—19:00, пн.—пт.: 10:00—19:00",True
15654,121170.0,2017.0, прт Кутузовский,"прт Кутузовский, дом 43",ОПС Б1,False,False,55.75145620000001,37.565489357776606,"Рэдиссон Ройал, Москва, 2/1, Кутузовский проспект, район Дорогомилово, Западный административный округ, Москва, ЦФО, 121248, РФ",2/1, 121248,False,227892.0,7,118.48997953672121,6,16,8.601,139.0562857142857,9,7,8,2,414.7709902847863,12,103.93247975255932,5.0,9.0,0.0,"пн.—пт.: 10:00—19:00, пн.—пт.: 10:00—19:00",True
25921,125040.0,2018.0, прт Ленинградский,"прт Ленинградский, дом 23",ОПС Б1,False,False,55.8027916,37.5292040698521,"МАДИ, 64, Ленинградский проспект, Аэропорт, район Аэропорт, Северный административный округ, Москва, ЦФО, 125319, РФ",Ленинградский проспект, 125319,False,227892.0,29,42.21533022009239,8,10,7.3135714285714295,134.10285714285715,12,9,7,0,,8,208.8605862448025,6.0,11.0,1.0,"пн.—пт.: 09:00—18:00 перерыв: 13:00—14:00, пн.: 11:00—20:00 вт.—пт.: 09:00—20:00 сб.: 09:00—18:00 перерыв: 13:00—14:00, пн.—пт.: 09:00—18:00",True
12776,125167.0,2017.0, прт Ленинградский,"прт Ленинградский, дом 56",ОПС Б1_2,False,False,55.8027916,37.5292040698521,"МАДИ, 64, Ленинградский проспект, Аэропорт, район Аэропорт, Северный административный округ, Москва, ЦФО, 125319, РФ",Ленинградский проспект, 125319,False,227892.0,19,123.2880090275248,6,11,7.5315714285714295,142.72714285714287,6,1,5,1,520.7677429554545,9,130.2554167861689,6.0,11.0,1.0,"пн.—пт.: 09:00—18:00 перерыв: 13:00—14:00, пн.: 11:00—20:00 вт.—пт.: 09:00—20:00 сб.: 09:00—18:00 перерыв: 13:00—14:00, пн.—пт.: 09:00—18:00",True
15758,125057.0,2017.0, прт Ленинградский,"прт Ленинградский, дом 69, стр. 1",ОПС Б1,False,False,55.8027916,37.5292040698521,"МАДИ, 64, Ленинградский проспект, Аэропорт, район Аэропорт, Северный административный округ, Москва, ЦФО, 125319, РФ",Ленинградский проспект, 125319,False,227892.0,18,261.9445507160068,10,19,4.950142857142857,139.83,10,0,13,1,333.34827693539773,18,35.390763287699635,6.0,11.0,1.0,"пн.—пт.: 09:00—18:00 перерыв: 13:00—14:00, пн.: 11:00—20:00 вт.—пт.: 09:00—20:00 сб.: 09:00—18:00 перерыв: 13:00—14:00, пн.—пт.: 09:00—18:00",True
7569,109153.0,2016.0, прт Лермонтовский,"прт Лермонтовский, дом 12",ОПС Б1_2,False,False,55.70228170000001,37.850512200000004,"Лермонтовский проспект (дублёр), Жулебино, район Выхино-Жулебино, Юго-Восточный административный округ, Москва, ЦФО, 109145, РФ",Выхино-Жулебино, 109145,False,128188.0,36,114.22055632304274,3,11,4.251,99.84757142857143,6,0,4,1,330.9211375647472,9,91.64227721199256,6.0,11.0,1.0,['пн.: 11:00—20:00 вт.—пт.: 09:00—20:00 сб.: 09:00—18:00'],True
7589,123308.0,2016.0, прт Маршала Жукова,"прт Маршала Жукова, дом 9",ОПС Б1_2,False,False,55.77641970000001,37.5038837,"проспект Маршала Жукова, район Хорошёво-Мнёвники, Северо-Западный административный округ, Москва, ЦФО, 125493, РФ",Северо-Западный административный округ, 125493,False,227892.0,21,106.22210954422735,3,10,4.849285714285714,56.838857142857144,5,1,11,0,,14,104.8607048970167,6.0,11.0,1.0,['пн.: 11:00—20:00 вт.—пт.: 09:00—20:00 сб.: 09:00—18:00'],True
10747,129164.0,2017.0, прт Мира,"прт Мира, дом 124, к.4",ОПС Б1_2,False,False,55.824373,37.6451891,"проспект Мира, Алексеевский, Алексеевский район, Северо-Восточный административный округ, Москва, ЦФО, 129366, РФ",Алексеевский, 129366,False,194273.0,22,141.57288794792524,3,9,4.183714285714285,94.05142857142856,8,1,7,0,,12,63.99661664035328,6.0,11.0,1.0,"пн.: 11:00—20:00 вт.—пт.: 09:00—20:00 сб.: 09:00—18:00, пн.: 11:00—20:00 вт.—пт.: 09:00—20:00 сб.: 09:00—18:00, пн.: 11:00—20:00 вт.—пт.: 09:00—20:00 сб.: 09:00—18:00 перерыв: пн., сб.: 13:00—14:00, пн.: 11:00—20:00, перерыв: 15:00—16:00 вт.—пт.: 09:00—20:00 сб.: 09:00—18:00, перерыв: 13:00—14:00",True
11686,129366.0,2017.0, прт Мира,"прт Мира, дом 182",ОПС Б1_2,False,False,55.824373,37.6451891,"проспект Мира, Алексеевский, Алексеевский район, Северо-Восточный административный округ, Москва, ЦФО, 129366, РФ",Алексеевский, 129366,False,194273.0,11,232.8406046198209,3,11,10.535,143.13628571428572,10,4,3,0,,22,46.99122833263035,6.0,11.0,1.0,"пн.: 11:00—20:00 вт.—пт.: 09:00—20:00 сб.: 09:00—18:00, пн.: 11:00—20:00 вт.—пт.: 09:00—20:00 сб.: 09:00—18:00, пн.: 11:00—20:00 вт.—пт.: 09:00—20:00 сб.: 09:00—18:00 перерыв: пн., сб.: 13:00—14:00, пн.: 11:00—20:00, перерыв: 15:00—16:00 вт.—пт.: 09:00—20:00 сб.: 09:00—18:00, перерыв: 13:00—14:00",True
7911,129110.0,2016.0, прт Мира,"прт Мира, дом 51, стр.1",ОПС Б1_2,False,False,55.824373,37.6451891,"проспект Мира, Алексеевский, Алексеевский район, Северо-Восточный административный округ, Москва, ЦФО, 129366, РФ",Алексеевский, 129366,False,194273.0,34,25.38410649506709,15,22,8.829714285714285,109.71557142857141,13,3,15,1,302.80856559931044,10,70.95833823592426,6.0,11.0,1.0,"пн.: 11:00—20:00 вт.—пт.: 09:00—20:00 сб.: 09:00—18:00, пн.: 11:00—20:00 вт.—пт.: 09:00—20:00 сб.: 09:00—18:00, пн.: 11:00—20:00 вт.—пт.: 09:00—20:00 сб.: 09:00—18:00 перерыв: пн., сб.: 13:00—14:00, пн.: 11:00—20:00, перерыв: 15:00—16:00 вт.—пт.: 09:00—20:00 сб.: 09:00—18:00, перерыв: 13:00—14:00",True
9366,129085.0,2016.0, прт Мира,"прт Мира, дом 97",ОПС Б1_2,False,False,55.824373,37.6451891,"проспект Мира, Алексеевский, Алексеевский район, Северо-Восточный административный округ, Москва, ЦФО, 129366, РФ",Алексеевский, 129366,False,194273.0,15,179.5671883703402,6,17,5.487428571428572,109.11771428571429,12,0,10,1,249.30846659718893,11,51.21056257999332,6.0,11.0,1.0,"пн.: 11:00—20:00 вт.—пт.: 09:00—20:00 сб.: 09:00—18:00, пн.: 11:00—20:00 вт.—пт.: 09:00—20:00 сб.: 09:00—18:00, пн.: 11:00—20:00 вт.—пт.: 09:00—20:00 сб.: 09:00—18:00 перерыв: пн., сб.: 13:00—14:00, пн.: 11:00—20:00, перерыв: 15:00—16:00 вт.—пт.: 09:00—20:00 сб.: 09:00—18:00, перерыв: 13:00—14:00",True
12762,119607.0,2017.0, прт Мичуринский,"прт Мичуринский, дом 47",ОПС Б1_2,False,False,55.6702147,37.449152500000004,"Мичуринский проспект, Олимпийская деревня, район Тропарёво-Никулино, Западный административный округ, Москва, ЦФО, 119361, РФ",Тропарёво-Никулино, 119361,False,227892.0,9,75.15114346436047,0,0,2.1634285714285717,74.78542857142857,4,1,1,1,269.92445499742746,10,169.53607764054837,6.0,11.0,1.0,"пн.: 11:00—19:00 вт.—пт.: 09:00—18:00, пн.: 11:00—20:00 вт., сб.: 09:00—18:00 ср.—пт.: 09:00—20:00",True
6697,119602.0,2015.0, прт Мичуринский,"прт Мичуринский, Олимпийская деревня, д. 3",ОПС Б1_2,False,False,55.6702147,37.449152500000004,"Мичуринский проспект, Олимпийская деревня, район Тропарёво-Никулино, Западный административный округ, Москва, ЦФО, 119361, РФ",Тропарёво-Никулино, 119361,False,227892.0,28,51.340897202438406,3,3,0.7635714285714286,78.22285714285714,7,1,3,1,375.0822290479258,16,45.742068420065536,6.0,11.0,1.0,"пн.: 11:00—19:00 вт.—пт.: 09:00—18:00, пн.: 11:00—20:00 вт., сб.: 09:00—18:00 ср.—пт.: 09:00—20:00",True
9670,117335.0,2017.0, прт Нахимовский,"прт Нахимовский, дом 56",ОПС Б1_2,False,False,55.6699782,37.585139399999996,"Нахимовский проспект, район Черёмушки, Юго-Западный административный округ, Москва, ЦФО, 113786, РФ",Юго-Западный административный округ, 113786,False,227892.0,19,114.24005786942406,6,17,1.8412857142857144,88.3012857142857,7,2,3,0,,12,132.34438694752387,6.0,12.0,1.0,['пн.—пт.: 09:00—21:00 сб.: 10:00—17:00'],True
11291,115477.0,2017.0, прт Пролетарский,"прт Пролетарский, дом 20 к. 1",ОПС Б1_2,False,False,55.63457020000001,37.6574466,"Пролетарский проспект, район Царицыно, Южный административный округ, Москва, ЦФО, 115447, РФ",Южный административный округ, 115447,False,227892.0,16,33.047148993260485,1,6,2.1502857142857144,65.98,4,1,5,1,305.27405346121486,11,158.20367493300483,6.0,11.0,1.0,"пн.: 11:00—20:00 вт.—пт.: 09:00—20:00 сб.: 09:00—18:00, пн.: 11:00—20:00 вт.—пт.: 09:00—20:00 сб.: 09:00—18:00 перерыв: пн., сб.: 13:00—14:00",True
15640,115522.0,2017.0, прт Пролетарский,"прт Пролетарский, дом 6, к.1",ОПС Б1_2,False,False,55.63457020000001,37.6574466,"Пролетарский проспект, район Царицыно, Южный административный округ, Москва, ЦФО, 115447, РФ",Южный административный округ, 115447,False,227892.0,31,120.32526275560969,1,14,2.051428571428572,72.63457142857143,6,1,4,0,,14,162.25638043466157,6.0,11.0,1.0,"пн.: 11:00—20:00 вт.—пт.: 09:00—20:00 сб.: 09:00—18:00, пн.: 11:00—20:00 вт.—пт.: 09:00—20:00 сб.: 09:00—18:00 перерыв: пн., сб.: 13:00—14:00",True
13235,109417.0,2017.0, прт Рязанский ,"прт Рязанский , дом 82, к.5",ОПС Б1_2,False,False,55.7112036,37.820536499999996,"Рязанский проспект, Выхино, район Выхино-Жулебино, Юго-Восточный административный округ, Москва, ЦФО, 109542, РФ",Выхино-Жулебино, 109542,False,128188.0,32,54.32917827821282,0,15,1.947142857142857,62.23071428571429,1,0,3,0,,12,120.54029255668104,6.0,11.0,1.0,"пн.: 11:00—20:00 вт.—пт.: 09:00—20:00 сб.: 09:00—18:00, пн.: 11:00—20:00 вт.—пт.: 09:00—20:00 сб.: 09:00—18:00, пн.: 11:00—20:00 вт.—пт.: 09:00—20:00 сб.: 09:00—18:00",True
